[ {
  "id" : 1166824,
  "name" : "OLYMPIADES",
  "longitud" : 48.82694828196076,
  "latitud" : 2.367038433387592
}, {
  "id" : 1166826,
  "name" : "BIBLIOTHÈQUE-FRANÇOIS MITTERRAND",
  "longitud" : 48.829830695271106,
  "latitud" : 2.376120009344837
}, {
  "id" : 1166828,
  "name" : "COUR SAINT-EMILION",
  "longitud" : 48.833520860805514,
  "latitud" : 2.3862652367404573
}, {
  "id" : 1166830,
  "name" : "BERCY",
  "longitud" : 48.840542782965464,
  "latitud" : 2.3794094631230687
}, {
  "id" : 1166832,
  "name" : "GARE DE LYON",
  "longitud" : 48.844652150982945,
  "latitud" : 2.37310814754528
}, {
  "id" : 1166834,
  "name" : "CHÂTELET",
  "longitud" : 48.85895618133369,
  "latitud" : 2.3473612552142624
}, {
  "id" : 1166838,
  "name" : "MADELEINE",
  "longitud" : 48.869578970578424,
  "latitud" : 2.324162488791942
}, {
  "id" : 1166840,
  "name" : "SAINT-LAZARE",
  "longitud" : 48.8755376703957,
  "latitud" : 2.3251964899774276
}, {
  "id" : 140078,
  "name" : "SAINT-DENIS-UNIVERSITÉ",
  "longitud" : 48.94611087248738,
  "latitud" : 2.3620451929905992
}, {
  "id" : 161468,
  "name" : "VAL D'EUROPE",
  "longitud" : 48.85549704826123,
  "latitud" : 2.7736084332189748
}, {
  "id" : 1628,
  "name" : "VILLEPINTE",
  "longitud" : 48.96316755011165,
  "latitud" : 2.5123878278590865
}, {
  "id" : 1629,
  "name" : "VILLIERS",
  "longitud" : 48.88132429394468,
  "latitud" : 2.3165967615088174
}, {
  "id" : 1631,
  "name" : "VINCENNES",
  "longitud" : 48.84732387116057,
  "latitud" : 2.433531596877892
}, {
  "id" : 1632,
  "name" : "VOLONTAIRES",
  "longitud" : 48.84141844267774,
  "latitud" : 2.307993649386661
}, {
  "id" : 1633,
  "name" : "VOLTAIRE (LÉON BLUM)",
  "longitud" : 48.85766372576006,
  "latitud" : 2.3800362967955064
}, {
  "id" : 1634,
  "name" : "WAGRAM",
  "longitud" : 48.883712476037346,
  "latitud" : 2.3055577575143036
}, {
  "id" : 1635,
  "name" : "DANUBE",
  "longitud" : 48.88195101817822,
  "latitud" : 2.3932606758573876
}, {
  "id" : 1636,
  "name" : "TORCY",
  "longitud" : 48.83959713753761,
  "latitud" : 2.6545815811820037
}, {
  "id" : 1637,
  "name" : "TROCADÉRO",
  "longitud" : 48.8630891350352,
  "latitud" : 2.2868403784945937
}, {
  "id" : 1638,
  "name" : "VARENNE",
  "longitud" : 48.85639306919846,
  "latitud" : 2.3147543648102884
}, {
  "id" : 1639,
  "name" : "VILLEJUIF-LÉO LAGRANGE",
  "longitud" : 48.80376966328267,
  "latitud" : 2.3639093063890435
}, {
  "id" : 1640,
  "name" : "SAINT-JACQUES",
  "longitud" : 48.83299169177581,
  "latitud" : 2.3366828966443496
}, {
  "id" : 1641,
  "name" : "SAINT-MARCEL",
  "longitud" : 48.838516743515164,
  "latitud" : 2.360727550361784
}, {
  "id" : 1642,
  "name" : "SAINT-PAUL (LE MARAIS)",
  "longitud" : 48.85513451823504,
  "latitud" : 2.3613343390676635
}, {
  "id" : 1643,
  "name" : "SARTROUVILLE",
  "longitud" : 48.93751218318358,
  "latitud" : 2.157311047020583
}, {
  "id" : 1644,
  "name" : "QUAI DE LA GARE",
  "longitud" : 48.83761467578531,
  "latitud" : 2.373852115680497
}, {
  "id" : 1645,
  "name" : "RASPAIL",
  "longitud" : 48.83915698149679,
  "latitud" : 2.330474151162931
}, {
  "id" : 1646,
  "name" : "RENNES",
  "longitud" : 48.848198268824774,
  "latitud" : 2.3280217486281134
}, {
  "id" : 1647,
  "name" : "RÉPUBLIQUE",
  "longitud" : 48.86741082883539,
  "latitud" : 2.363587825558049
}, {
  "id" : 1648,
  "name" : "PLACE D'ITALIE",
  "longitud" : 48.831552302643125,
  "latitud" : 2.3553334432190454
}, {
  "id" : 1649,
  "name" : "PLACE MONGE (JARDIN DES PLANTES)",
  "longitud" : 48.843164692766834,
  "latitud" : 2.3521103624150967
}, {
  "id" : 1650,
  "name" : "PORT-ROYAL",
  "longitud" : 48.83988516597736,
  "latitud" : 2.336873440890153
}, {
  "id" : 1651,
  "name" : "NATION",
  "longitud" : 48.849010153648216,
  "latitud" : 2.3976646127910075
}, {
  "id" : 1652,
  "name" : "NOISY-LE-GRAND (MONT D'EST)",
  "longitud" : 48.840882627372274,
  "latitud" : 2.549350971449035
}, {
  "id" : 1653,
  "name" : "ODÉON",
  "longitud" : 48.85231488119486,
  "latitud" : 2.338861720336335
}, {
  "id" : 1655,
  "name" : "MARCADET-POISSONNIERS",
  "longitud" : 48.891543930630554,
  "latitud" : 2.3493711153819112
}, {
  "id" : 1656,
  "name" : "LA FOURCHE",
  "longitud" : 48.8874368425293,
  "latitud" : 2.3257252220174083
}, {
  "id" : 1657,
  "name" : "LA MOTTE-PICQUET-GRENELLE",
  "longitud" : 48.849018928349764,
  "latitud" : 2.297762160707931
}, {
  "id" : 1659,
  "name" : "GAMBETTA",
  "longitud" : 48.86503429801815,
  "latitud" : 2.3985414869122423
}, {
  "id" : 1660,
  "name" : "SCEAUX",
  "longitud" : 48.78148494919581,
  "latitud" : 2.2972966908534893
}, {
  "id" : 1661,
  "name" : "SÉGUR",
  "longitud" : 48.84686470206919,
  "latitud" : 2.307268847578926
}, {
  "id" : 1662795,
  "name" : "LES AGNETTES",
  "longitud" : 48.92291633150906,
  "latitud" : 2.285963896576634
}, {
  "id" : 1662797,
  "name" : "ASNIÈRES-GENNEVILLIERS LES COURTILLES",
  "longitud" : 48.93029362287076,
  "latitud" : 2.2837606331952487
}, {
  "id" : 1662,
  "name" : "SENTIER",
  "longitud" : 48.8673503814313,
  "latitud" : 2.3475672354150805
}, {
  "id" : 1663,
  "name" : "SEVRAN-BEAUDOTTES",
  "longitud" : 48.94773765113627,
  "latitud" : 2.524042278144985
}, {
  "id" : 1664,
  "name" : "SEVRAN LIVRY",
  "longitud" : 48.936262249020956,
  "latitud" : 2.534722783456677
}, {
  "id" : 1665,
  "name" : "SÈVRES-LECOURBE",
  "longitud" : 48.84499615085685,
  "latitud" : 2.310864830044154
}, {
  "id" : 1666,
  "name" : "SÈVRES-BABYLONE",
  "longitud" : 48.85093928843075,
  "latitud" : 2.3261146548222844
}, {
  "id" : 1668,
  "name" : "SIMPLON",
  "longitud" : 48.89412344466592,
  "latitud" : 2.347245444443029
}, {
  "id" : 1669,
  "name" : "SOLFÉRINO",
  "longitud" : 48.858533359508236,
  "latitud" : 2.323089248787209
}, {
  "id" : 1670,
  "name" : "SAINT-GERMAIN-EN-LAYE",
  "longitud" : 48.898478198699756,
  "latitud" : 2.094538804113546
}, {
  "id" : 1671,
  "name" : "SAINT-MAUR CRÉTEIL",
  "longitud" : 48.80641960896216,
  "latitud" : 2.47204505094563
}, {
  "id" : 1672,
  "name" : "SAINT-MICHEL NOTRE-DAME",
  "longitud" : 48.85368078084504,
  "latitud" : 2.3442413996203175
}, {
  "id" : 1673,
  "name" : "SAINT-RÉMY-LÈS-CHEVREUSE",
  "longitud" : 48.70286868424979,
  "latitud" : 2.070600214521146
}, {
  "id" : 1674,
  "name" : "STALINGRAD",
  "longitud" : 48.88418929420877,
  "latitud" : 2.367030441974567
}, {
  "id" : 1677,
  "name" : "STRASBOURG-SAINT-DENIS",
  "longitud" : 48.86963236518746,
  "latitud" : 2.35450206308924
}, {
  "id" : 1680,
  "name" : "SUCY BONNEUIL",
  "longitud" : 48.77105153303763,
  "latitud" : 2.507511268345535
}, {
  "id" : 1681,
  "name" : "SULLY-MORLAND",
  "longitud" : 48.85079359474211,
  "latitud" : 2.3612369937142983
}, {
  "id" : 1682,
  "name" : "TÉLÉGRAPHE",
  "longitud" : 48.87552244924565,
  "latitud" : 2.3986765111449513
}, {
  "id" : 1683,
  "name" : "TEMPLE",
  "longitud" : 48.866764167814516,
  "latitud" : 2.3615713270327316
}, {
  "id" : 1684,
  "name" : "TERNES",
  "longitud" : 48.87822804050767,
  "latitud" : 2.2981214325821844
}, {
  "id" : 1685,
  "name" : "TOLBIAC",
  "longitud" : 48.82615945391136,
  "latitud" : 2.3570194661891253
}, {
  "id" : 1686,
  "name" : "TRINITÉ-D'ESTIENNE D'ORVES",
  "longitud" : 48.8763290374387,
  "latitud" : 2.331804568510596
}, {
  "id" : 1688,
  "name" : "TUILERIES",
  "longitud" : 48.86478016250008,
  "latitud" : 2.3290949544294275
}, {
  "id" : 1689,
  "name" : "VAL DE FONTENAY",
  "longitud" : 48.854043248483144,
  "latitud" : 2.488553014023377
}, {
  "id" : 1690,
  "name" : "VANEAU",
  "longitud" : 48.84870084962003,
  "latitud" : 2.321239881938573
}, {
  "id" : 1691,
  "name" : "VAUGIRARD (ADOLPHE CHÉRIOUX)",
  "longitud" : 48.83943928123955,
  "latitud" : 2.3010780424739252
}, {
  "id" : 1692060,
  "name" : "CARREFOUR-PLEYEL",
  "longitud" : 48.9199435050834,
  "latitud" : 2.3439094197858905
}, {
  "id" : 1692,
  "name" : "VAVIN",
  "longitud" : 48.84205985758205,
  "latitud" : 2.328867050437212
}, {
  "id" : 1693,
  "name" : "VERT-GALANT",
  "longitud" : 48.94425695476604,
  "latitud" : 2.5668557510229473
}, {
  "id" : 1694,
  "name" : "VICTOR HUGO",
  "longitud" : 48.869864912484076,
  "latitud" : 2.285226207250439
}, {
  "id" : 1695,
  "name" : "VILLEJUIF-LOUIS ARAGON",
  "longitud" : 48.786638011119834,
  "latitud" : 2.367110527381649
}, {
  "id" : 1696,
  "name" : "VILLEJUIF-PAUL VAILLANT COUTURIER (HÔPITAL PAUL BROUSSE)",
  "longitud" : 48.79599413239317,
  "latitud" : 2.3682314519156806
}, {
  "id" : 1697,
  "name" : "VILLEPARISIS",
  "longitud" : 48.95316034963005,
  "latitud" : 2.6027285218819407
}, {
  "id" : 1698,
  "name" : "REUILLY-DIDEROT",
  "longitud" : 48.8473528769588,
  "latitud" : 2.3858425400402448
}, {
  "id" : 1700,
  "name" : "RICHARD-LENOIR",
  "longitud" : 48.860488412845775,
  "latitud" : 2.3719204375021397
}, {
  "id" : 1702,
  "name" : "RICHELIEU-DROUOT",
  "longitud" : 48.872096123789774,
  "latitud" : 2.339325555856426
}, {
  "id" : 1703,
  "name" : "RIQUET",
  "longitud" : 48.8883932319013,
  "latitud" : 2.374433108884994
}, {
  "id" : 1704,
  "name" : "ROBESPIERRE",
  "longitud" : 48.855680808196944,
  "latitud" : 2.423659085483019
}, {
  "id" : 1705,
  "name" : "ROBINSON",
  "longitud" : 48.78003132105507,
  "latitud" : 2.281059378471848
}, {
  "id" : 1706,
  "name" : "AÉROPORT CHARLES DE GAULLE 1",
  "longitud" : 49.010399560630766,
  "latitud" : 2.5613573389778255
}, {
  "id" : 1707,
  "name" : "ROME",
  "longitud" : 48.88207083393704,
  "latitud" : 2.3203983393099863
}, {
  "id" : 1708,
  "name" : "RUE DE LA POMPE (AVENUE GEORGES MANDEL)",
  "longitud" : 48.864253384403426,
  "latitud" : 2.277916762028845
}, {
  "id" : 1709,
  "name" : "RUE DES BOULETS",
  "longitud" : 48.8522227131835,
  "latitud" : 2.389115650927187
}, {
  "id" : 1710,
  "name" : "RUE DU BAC",
  "longitud" : 48.85589133781551,
  "latitud" : 2.325704993899314
}, {
  "id" : 1712,
  "name" : "GRANDS BOULEVARDS",
  "longitud" : 48.871511817078165,
  "latitud" : 2.343208377544865
}, {
  "id" : 1713,
  "name" : "RUEIL-MALMAISON",
  "longitud" : 48.88716813740421,
  "latitud" : 2.1706233782820132
}, {
  "id" : 1714,
  "name" : "SAINT-AMBROISE",
  "longitud" : 48.86164742429928,
  "latitud" : 2.373147140772303
}, {
  "id" : 1715,
  "name" : "SAINT-AUGUSTIN",
  "longitud" : 48.87438676021276,
  "latitud" : 2.3207278319647315
}, {
  "id" : 1716,
  "name" : "BASILIQUE DE SAINT-DENIS",
  "longitud" : 48.936477492650496,
  "latitud" : 2.3596397453045825
}, {
  "id" : 1717,
  "name" : "SAINT-DENIS - PORTE DE PARIS",
  "longitud" : 48.92992666527093,
  "latitud" : 2.3561861491888694
}, {
  "id" : 1718,
  "name" : "SAINT-FARGEAU",
  "longitud" : 48.871699810971116,
  "latitud" : 2.4042987242021825
}, {
  "id" : 1719,
  "name" : "SAINT-FRANÇOIS-XAVIER",
  "longitud" : 48.8509825598235,
  "latitud" : 2.31442986460027
}, {
  "id" : 1720,
  "name" : "SAINT-GEORGES",
  "longitud" : 48.878593955236205,
  "latitud" : 2.3378269689170192
}, {
  "id" : 1721,
  "name" : "SAINT-GERMAIN DES PRÉS",
  "longitud" : 48.85344723773834,
  "latitud" : 2.333046326044867
}, {
  "id" : 1725,
  "name" : "SAINT-MANDÉ",
  "longitud" : 48.84623825662077,
  "latitud" : 2.418999828109256
}, {
  "id" : 1728,
  "name" : "RUE SAINT-MAUR",
  "longitud" : 48.86408940574645,
  "latitud" : 2.3808997885521195
}, {
  "id" : 1729,
  "name" : "SAINT-MICHEL",
  "longitud" : 48.853599907885794,
  "latitud" : 2.3439962410940125
}, {
  "id" : 1730,
  "name" : "SAINT-PHILIPPE DU ROULE",
  "longitud" : 48.8724706657937,
  "latitud" : 2.310769101230354
}, {
  "id" : 1731,
  "name" : "SAINT-PLACIDE",
  "longitud" : 48.84701184016864,
  "latitud" : 2.327055111355132
}, {
  "id" : 1733,
  "name" : "SAINT-SULPICE",
  "longitud" : 48.8511463550549,
  "latitud" : 2.3309628563664644
}, {
  "id" : 1734,
  "name" : "PORTE D'IVRY",
  "longitud" : 48.82135736230755,
  "latitud" : 2.369308237223248
}, {
  "id" : 1735,
  "name" : "PORTE D'ORLÉANS (GÉNÉRAL LECLERC)",
  "longitud" : 48.82281706023495,
  "latitud" : 2.325072625148001
}, {
  "id" : 1736,
  "name" : "PORTE DAUPHINE (MARÉCHAL DE LATTRE DE TASSIGNY)",
  "longitud" : 48.87179221641751,
  "latitud" : 2.27486996119569
}, {
  "id" : 1737,
  "name" : "PORTE DE BAGNOLET",
  "longitud" : 48.864336535483645,
  "latitud" : 2.4088253760377283
}, {
  "id" : 1738,
  "name" : "PORTE DE CHAMPERRET",
  "longitud" : 48.88573915969202,
  "latitud" : 2.2918606206755348
}, {
  "id" : 1740,
  "name" : "PORTE DE CHOISY",
  "longitud" : 48.81990244616168,
  "latitud" : 2.364965598290819
}, {
  "id" : 1741,
  "name" : "PORTE DE CLICHY",
  "longitud" : 48.894436060297956,
  "latitud" : 2.313565665465226
}, {
  "id" : 1742,
  "name" : "PORTE DE CLIGNANCOURT",
  "longitud" : 48.89797017040717,
  "latitud" : 2.3439883834332904
}, {
  "id" : 1743,
  "name" : "PORTE DE LA CHAPELLE",
  "longitud" : 48.89795934324147,
  "latitud" : 2.3592550695796524
}, {
  "id" : 1744,
  "name" : "PORTE DE LA VILLETTE",
  "longitud" : 48.89752915689145,
  "latitud" : 2.3856442301273044
}, {
  "id" : 1745,
  "name" : "PORTE DE MONTREUIL",
  "longitud" : 48.85337987781381,
  "latitud" : 2.4104581874163533
}, {
  "id" : 1746,
  "name" : "PORTE DE PANTIN",
  "longitud" : 48.888583980971895,
  "latitud" : 2.3924228757185415
}, {
  "id" : 1747,
  "name" : "PORTE DE SAINT-CLOUD",
  "longitud" : 48.837565334473624,
  "latitud" : 2.255591274447898
}, {
  "id" : 1748,
  "name" : "PORTE DE SAINT-OUEN",
  "longitud" : 48.89751173277147,
  "latitud" : 2.329021647212208
}, {
  "id" : 1749,
  "name" : "PORTE DE VANVES",
  "longitud" : 48.82776532658967,
  "latitud" : 2.3043123507630607
}, {
  "id" : 1750,
  "name" : "PORTE DE VERSAILLES",
  "longitud" : 48.832253452749,
  "latitud" : 2.287864137819189
}, {
  "id" : 1751,
  "name" : "PORTE DE VINCENNES",
  "longitud" : 48.847016518419125,
  "latitud" : 2.410816882334764
}, {
  "id" : 1752,
  "name" : "PORTE DES LILAS",
  "longitud" : 48.8769382235089,
  "latitud" : 2.4063765669297816
}, {
  "id" : 1755,
  "name" : "PORTE MAILLOT",
  "longitud" : 48.87800617627899,
  "latitud" : 2.2824656400013326
}, {
  "id" : 1756,
  "name" : "PRÉ-SAINT-GERVAIS",
  "longitud" : 48.88015993211241,
  "latitud" : 2.3985866218697662
}, {
  "id" : 1757,
  "name" : "PYRAMIDES",
  "longitud" : 48.86649698703855,
  "latitud" : 2.334094215259097
}, {
  "id" : 1758,
  "name" : "PYRÉNÉES",
  "longitud" : 48.87382117233675,
  "latitud" : 2.384886372197903
}, {
  "id" : 1759,
  "name" : "QUAI DE LA RAPÉE",
  "longitud" : 48.84596603240645,
  "latitud" : 2.3669131797383116
}, {
  "id" : 1760,
  "name" : "QUATRE SEPTEMBRE",
  "longitud" : 48.86966057219203,
  "latitud" : 2.3363282816417112
}, {
  "id" : 1761,
  "name" : "RAMBUTEAU",
  "longitud" : 48.86119339564163,
  "latitud" : 2.3532869598707133
}, {
  "id" : 1762,
  "name" : "RANELAGH",
  "longitud" : 48.85550440300199,
  "latitud" : 2.269959178255765
}, {
  "id" : 1764,
  "name" : "RÉAUMUR-SÉBASTOPOL",
  "longitud" : 48.86604666963103,
  "latitud" : 2.352620954015186
}, {
  "id" : 1771,
  "name" : "ORSAY-VILLE",
  "longitud" : 48.69760164693814,
  "latitud" : 2.182079748545582
}, {
  "id" : 1772,
  "name" : "OURCQ",
  "longitud" : 48.886923877470686,
  "latitud" : 2.3866564344034558
}, {
  "id" : 1773,
  "name" : "PALAIS-ROYAL (MUSÉE DU LOUVRE)",
  "longitud" : 48.8623718215243,
  "latitud" : 2.3365736007364304
}, {
  "id" : 1775,
  "name" : "PALAISEAU",
  "longitud" : 48.71791943671647,
  "latitud" : 2.246501416326464
}, {
  "id" : 1776,
  "name" : "PALAISEAU VILLEBON",
  "longitud" : 48.707745883014454,
  "latitud" : 2.237039533120401
}, {
  "id" : 1777,
  "name" : "PARC DES EXPOSITIONS",
  "longitud" : 48.97352603245434,
  "latitud" : 2.5144841760344985
}, {
  "id" : 1778,
  "name" : "PARC DE SCEAUX",
  "longitud" : 48.770631071014726,
  "latitud" : 2.310222723494766
}, {
  "id" : 1779,
  "name" : "PARMENTIER",
  "longitud" : 48.86525985667316,
  "latitud" : 2.3747570817167682
}, {
  "id" : 1780,
  "name" : "PASSY",
  "longitud" : 48.857534382513876,
  "latitud" : 2.28559270581709
}, {
  "id" : 1781,
  "name" : "PASTEUR",
  "longitud" : 48.842012804057696,
  "latitud" : 2.3132900438354906
}, {
  "id" : 1783,
  "name" : "PELLEPORT",
  "longitud" : 48.86822334760734,
  "latitud" : 2.401324380544102
}, {
  "id" : 1784,
  "name" : "PÈRE-LACHAISE",
  "longitud" : 48.86316120506396,
  "latitud" : 2.3872604001843536
}, {
  "id" : 1786,
  "name" : "PEREIRE",
  "longitud" : 48.8850310612536,
  "latitud" : 2.2971351115061647
}, {
  "id" : 1787,
  "name" : "PERNETY",
  "longitud" : 48.833933819810916,
  "latitud" : 2.31790897216328
}, {
  "id" : 1788,
  "name" : "PHILIPPE AUGUSTE",
  "longitud" : 48.85837884146994,
  "latitud" : 2.3897347327397043
}, {
  "id" : 1789,
  "name" : "PICPUS",
  "longitud" : 48.84532311461395,
  "latitud" : 2.4017863137606863
}, {
  "id" : 1790,
  "name" : "PIERRE ET MARIE CURIE",
  "longitud" : 48.81591718160038,
  "latitud" : 2.377878816483871
}, {
  "id" : 1791,
  "name" : "PIGALLE",
  "longitud" : 48.88242252841757,
  "latitud" : 2.337254682101535
}, {
  "id" : 1795,
  "name" : "PLACE DE CLICHY",
  "longitud" : 48.88345565159549,
  "latitud" : 2.3273749934103556
}, {
  "id" : 1797,
  "name" : "PLACE DES FÊTES",
  "longitud" : 48.8772239477293,
  "latitud" : 2.392765050250897
}, {
  "id" : 1799,
  "name" : "PLAISANCE",
  "longitud" : 48.83175809378841,
  "latitud" : 2.3138665498481625
}, {
  "id" : 1800,
  "name" : "POISSONNIÈRE",
  "longitud" : 48.877353095288015,
  "latitud" : 2.349381423952599
}, {
  "id" : 1801,
  "name" : "POISSY",
  "longitud" : 48.933164262405,
  "latitud" : 2.041083510970564
}, {
  "id" : 1802,
  "name" : "PONT DE LEVALLOIS-BÉCON",
  "longitud" : 48.89730990517954,
  "latitud" : 2.2807686428069003
}, {
  "id" : 1803,
  "name" : "PONT DE NEUILLY",
  "longitud" : 48.88550610941816,
  "latitud" : 2.258527470197358
}, {
  "id" : 1804,
  "name" : "PONT DE SÈVRES",
  "longitud" : 48.829690338022736,
  "latitud" : 2.2305284341923346
}, {
  "id" : 1805,
  "name" : "PONT MARIE (CITÉ DES ARTS)",
  "longitud" : 48.85346358569476,
  "latitud" : 2.357383972809163
}, {
  "id" : 1806,
  "name" : "PONT NEUF",
  "longitud" : 48.85853410228574,
  "latitud" : 2.3421172386659985
}, {
  "id" : 1808,
  "name" : "PORTE D'ITALIE",
  "longitud" : 48.8187170251155,
  "latitud" : 2.360500832805366
}, {
  "id" : 1809,
  "name" : "MASSY-PALAISEAU",
  "longitud" : 48.72414852610061,
  "latitud" : 2.259342348954552
}, {
  "id" : 1810,
  "name" : "MASSY-VERRIÈRES",
  "longitud" : 48.7349524117336,
  "latitud" : 2.2743411603329524
}, {
  "id" : 1811,
  "name" : "MAUBERT-MUTUALITÉ",
  "longitud" : 48.849716940163574,
  "latitud" : 2.348925558491872
}, {
  "id" : 1812,
  "name" : "MÉNILMONTANT",
  "longitud" : 48.865705787623,
  "latitud" : 2.3844293751632057
}, {
  "id" : 1814,
  "name" : "MICHEL-ANGE-AUTEUIL",
  "longitud" : 48.847924592785105,
  "latitud" : 2.264235905782418
}, {
  "id" : 1816,
  "name" : "MICHEL-ANGE-MOLITOR",
  "longitud" : 48.845056129032,
  "latitud" : 2.261911423279769
}, {
  "id" : 1818,
  "name" : "MIRABEAU",
  "longitud" : 48.847084858904864,
  "latitud" : 2.273074914922012
}, {
  "id" : 1819,
  "name" : "MIROMESNIL",
  "longitud" : 48.87353214061607,
  "latitud" : 2.3155780248661895
}, {
  "id" : 1821,
  "name" : "MITRY-CLAYE",
  "longitud" : 48.97585585992235,
  "latitud" : 2.642366301900864
}, {
  "id" : 1822,
  "name" : "MONCEAU",
  "longitud" : 48.88057689074842,
  "latitud" : 2.309415946164807
}, {
  "id" : 1824,
  "name" : "MONTPARNASSE-BIENVENUE",
  "longitud" : 48.844189508526796,
  "latitud" : 2.324441232433701
}, {
  "id" : 1828,
  "name" : "MOUTON-DUVERNET",
  "longitud" : 48.832191599269656,
  "latitud" : 2.3304069926293205
}, {
  "id" : 1829,
  "name" : "NANTERRE-PRÉFECTURE",
  "longitud" : 48.89565993203451,
  "latitud" : 2.2231003280556174
}, {
  "id" : 1830,
  "name" : "NANTERRE-UNIVERSITÉ",
  "longitud" : 48.90098901400317,
  "latitud" : 2.213791712188878
}, {
  "id" : 1831,
  "name" : "NANTERRE-VILLE",
  "longitud" : 48.89532514729429,
  "latitud" : 2.1958404738707524
}, {
  "id" : 1836,
  "name" : "NATIONALE",
  "longitud" : 48.832881288678834,
  "latitud" : 2.3619094080161975
}, {
  "id" : 1837,
  "name" : "NEUILLY-PLAISANCE",
  "longitud" : 48.85346032384484,
  "latitud" : 2.5137606489199347
}, {
  "id" : 1838,
  "name" : "NOGENT-SUR-MARNE",
  "longitud" : 48.83510877417377,
  "latitud" : 2.4716839161590887
}, {
  "id" : 1839,
  "name" : "NOISIEL",
  "longitud" : 48.84348503430221,
  "latitud" : 2.616614613852153
}, {
  "id" : 1840,
  "name" : "NOISY-CHAMPS",
  "longitud" : 48.84307613366186,
  "latitud" : 2.5818763988415916
}, {
  "id" : 1841,
  "name" : "NOTRE-DAME DE LORETTE",
  "longitud" : 48.876050554237366,
  "latitud" : 2.337908692037609
}, {
  "id" : 1842,
  "name" : "NOTRE-DAME DES CHAMPS",
  "longitud" : 48.84478304833005,
  "latitud" : 2.3284444832927207
}, {
  "id" : 1843,
  "name" : "OBERKAMPF",
  "longitud" : 48.86490241594044,
  "latitud" : 2.367537013481096
}, {
  "id" : 1846,
  "name" : "OPÉRA",
  "longitud" : 48.870720976292084,
  "latitud" : 2.3322547435729586
}, {
  "id" : 1848,
  "name" : "LE PARC DE SAINT-MAUR",
  "longitud" : 48.80528001222769,
  "latitud" : 2.48559432484478
}, {
  "id" : 1849,
  "name" : "LE PELETIER",
  "longitud" : 48.87496305802612,
  "latitud" : 2.3401567908492056
}, {
  "id" : 1850,
  "name" : "LE VÉSINET-CENTRE",
  "longitud" : 48.89009570633796,
  "latitud" : 2.1343746143232596
}, {
  "id" : 1851,
  "name" : "LE VÉSINET-LE PECQ",
  "longitud" : 48.89835089406469,
  "latitud" : 2.121828925443024
}, {
  "id" : 1853,
  "name" : "LES BACONNETS",
  "longitud" : 48.739677540827685,
  "latitud" : 2.2875987643958364
}, {
  "id" : 1854,
  "name" : "LES GOBELINS",
  "longitud" : 48.83612743975252,
  "latitud" : 2.3520811178355734
}, {
  "id" : 1855,
  "name" : "LES HALLES",
  "longitud" : 48.862011970720516,
  "latitud" : 2.3464764519062062
}, {
  "id" : 1856,
  "name" : "LES SABLONS (JARDIN D'ACCLIMATATION)",
  "longitud" : 48.88129918549113,
  "latitud" : 2.2719151760177914
}, {
  "id" : 1858,
  "name" : "LIÈGE",
  "longitud" : 48.87953716638082,
  "latitud" : 2.3268579472729614
}, {
  "id" : 1859,
  "name" : "LOGNES",
  "longitud" : 48.83907532767992,
  "latitud" : 2.6338690555739257
}, {
  "id" : 1860,
  "name" : "LOUIS BLANC",
  "longitud" : 48.88090042815109,
  "latitud" : 2.365107218264337
}, {
  "id" : 1862,
  "name" : "LOUISE MICHEL",
  "longitud" : 48.889269622246026,
  "latitud" : 2.2880551248039036
}, {
  "id" : 1864,
  "name" : "LOUVRE-RIVOLI",
  "longitud" : 48.86087985759375,
  "latitud" : 2.340973275817903
}, {
  "id" : 1865,
  "name" : "LOZÈRE",
  "longitud" : 48.706049793049075,
  "latitud" : 2.2115654162223874
}, {
  "id" : 1866,
  "name" : "LUXEMBOURG",
  "longitud" : 48.84677855902824,
  "latitud" : 2.3404411811761725
}, {
  "id" : 1867,
  "name" : "MABILLON",
  "longitud" : 48.85284513365445,
  "latitud" : 2.335143718516068
}, {
  "id" : 1870,
  "name" : "MAIRIE D'ISSY",
  "longitud" : 48.82434652601842,
  "latitud" : 2.2735658296006465
}, {
  "id" : 1871,
  "name" : "MAIRIE D'IVRY",
  "longitud" : 48.81121453549021,
  "latitud" : 2.383508928732683
}, {
  "id" : 1872,
  "name" : "MAIRIE DE CLICHY",
  "longitud" : 48.90400543242958,
  "latitud" : 2.3053681208668606
}, {
  "id" : 1873,
  "name" : "MAIRIE DE MONTREUIL",
  "longitud" : 48.862280986339,
  "latitud" : 2.441827679127713
}, {
  "id" : 1874,
  "name" : "MAIRIE DE SAINT-OUEN",
  "longitud" : 48.91162168038383,
  "latitud" : 2.3337369648420916
}, {
  "id" : 1875,
  "name" : "MAIRIE DES LILAS",
  "longitud" : 48.880051061772676,
  "latitud" : 2.415660206064229
}, {
  "id" : 1876,
  "name" : "MAISON BLANCHE",
  "longitud" : 48.82287877506322,
  "latitud" : 2.358079894290851
}, {
  "id" : 1878,
  "name" : "MAISONS-LAFFITTE",
  "longitud" : 48.94604723230418,
  "latitud" : 2.144251676642267
}, {
  "id" : 1879,
  "name" : "MALAKOFF-PLATEAU DE VANVES",
  "longitud" : 48.8224426939998,
  "latitud" : 2.2979321053287274
}, {
  "id" : 1880,
  "name" : "MALAKOFF-RUE ETIENNE DOLET",
  "longitud" : 48.81470406056698,
  "latitud" : 2.2972847301706394
}, {
  "id" : 1881,
  "name" : "MALESHERBES",
  "longitud" : 48.88253647289218,
  "latitud" : 2.311009243005514
}, {
  "id" : 1882,
  "name" : "MARAÎCHERS",
  "longitud" : 48.8526004024001,
  "latitud" : 2.4063849895661393
}, {
  "id" : 1884,
  "name" : "MARCEL SEMBAT",
  "longitud" : 48.833808586980275,
  "latitud" : 2.243480614417395
}, {
  "id" : 1885,
  "name" : "MARNE-LA-VALLÉE CHESSY",
  "longitud" : 48.87016777436163,
  "latitud" : 2.782492052599299
}, {
  "id" : 1886,
  "name" : "MARX-DORMOY",
  "longitud" : 48.890374081221125,
  "latitud" : 2.3597970086706117
}, {
  "id" : 1887,
  "name" : "LA DÉFENSE (GRANDE ARCHE)",
  "longitud" : 48.891826754836515,
  "latitud" : 2.237992043215619
}, {
  "id" : 1888,
  "name" : "GUY-MÔQUET",
  "longitud" : 48.893009056051206,
  "latitud" : 2.3274958394904894
}, {
  "id" : 1889,
  "name" : "HAVRE-CAUMARTIN",
  "longitud" : 48.8734618906704,
  "latitud" : 2.3284804844734768
}, {
  "id" : 1891,
  "name" : "HOCHE",
  "longitud" : 48.891499383764256,
  "latitud" : 2.4031249606560765
}, {
  "id" : 1892,
  "name" : "HÔTEL DE VILLE",
  "longitud" : 48.857355927169515,
  "latitud" : 2.3520735668587185
}, {
  "id" : 1894,
  "name" : "HOUILLES CARRIÈRES-SUR-SEINE",
  "longitud" : 48.920645595306866,
  "latitud" : 2.1844117553489246
}, {
  "id" : 1895,
  "name" : "IÉNA",
  "longitud" : 48.864350199647255,
  "latitud" : 2.2940452637830906
}, {
  "id" : 1897,
  "name" : "INVALIDES",
  "longitud" : 48.86085078966753,
  "latitud" : 2.314548112626649
}, {
  "id" : 1898,
  "name" : "JACQUES-BONSERGENT",
  "longitud" : 48.87070082326957,
  "latitud" : 2.3605786355872773
}, {
  "id" : 1899,
  "name" : "JASMIN",
  "longitud" : 48.852438519222666,
  "latitud" : 2.2679339230009505
}, {
  "id" : 1900,
  "name" : "JAURÈS",
  "longitud" : 48.88276854674882,
  "latitud" : 2.36994579899074
}, {
  "id" : 1903,
  "name" : "JAVEL-ANDRÉ-CITROEN",
  "longitud" : 48.84596388048408,
  "latitud" : 2.2778151263537714
}, {
  "id" : 1904,
  "name" : "JOINVILLE-LE-PONT",
  "longitud" : 48.821069678359656,
  "latitud" : 2.4638349563053548
}, {
  "id" : 1905,
  "name" : "JOURDAIN",
  "longitud" : 48.87524829462498,
  "latitud" : 2.389329434152641
}, {
  "id" : 1906,
  "name" : "JULES JOFFRIN",
  "longitud" : 48.89249697693026,
  "latitud" : 2.3443284105515048
}, {
  "id" : 1907,
  "name" : "JUSSIEU",
  "longitud" : 48.8459684322046,
  "latitud" : 2.3548073926942186
}, {
  "id" : 1909,
  "name" : "KLÉBER",
  "longitud" : 48.87130614908782,
  "latitud" : 2.2933310208962174
}, {
  "id" : 1910,
  "name" : "LA CHAPELLE",
  "longitud" : 48.884388698358165,
  "latitud" : 2.3592765642767297
}, {
  "id" : 1911,
  "name" : "LA COURNEUVE-8-MAI-1945",
  "longitud" : 48.92051450668569,
  "latitud" : 2.410225779120198
}, {
  "id" : 1912,
  "name" : "LA CROIX-DE-BERNY",
  "longitud" : 48.76254042207571,
  "latitud" : 2.3047207763689053
}, {
  "id" : 1914,
  "name" : "LA HACQUINIÈRE",
  "longitud" : 48.69506073208291,
  "latitud" : 2.1526641367708073
}, {
  "id" : 1917,
  "name" : "LA MUETTE",
  "longitud" : 48.85809504968323,
  "latitud" : 2.274096448110612
}, {
  "id" : 1918,
  "name" : "LA PLAINE-STADE DE FRANCE",
  "longitud" : 48.918116641116775,
  "latitud" : 2.3626045185666085
}, {
  "id" : 1919,
  "name" : "LA VARENNE-CHENNEVIÈRES",
  "longitud" : 48.79493354483859,
  "latitud" : 2.5130447577249475
}, {
  "id" : 1920,
  "name" : "LAMARCK-CAULAINCOURT",
  "longitud" : 48.8897381077178,
  "latitud" : 2.339149086674118
}, {
  "id" : 1921,
  "name" : "LAPLACE",
  "longitud" : 48.8075834127928,
  "latitud" : 2.333349401533708
}, {
  "id" : 1922,
  "name" : "LAUMIÈRE",
  "longitud" : 48.8849316105461,
  "latitud" : 2.379091246899838
}, {
  "id" : 1923,
  "name" : "LE BOURGET",
  "longitud" : 48.93068622984963,
  "latitud" : 2.4256937696090213
}, {
  "id" : 1924,
  "name" : "LE GUICHET",
  "longitud" : 48.70500236515563,
  "latitud" : 2.1916590395033873
}, {
  "id" : 1925,
  "name" : "LE KREMLIN-BICÊTRE",
  "longitud" : 48.810385125129486,
  "latitud" : 2.3618306830911315
}, {
  "id" : 1926,
  "name" : "DUPLEIX",
  "longitud" : 48.85039257831968,
  "latitud" : 2.2936483362305387
}, {
  "id" : 1927,
  "name" : "DUROC",
  "longitud" : 48.846848768895974,
  "latitud" : 2.3169373108340854
}, {
  "id" : 1930,
  "name" : "EDGAR-QUINET",
  "longitud" : 48.84056772620437,
  "latitud" : 2.326402815222764
}, {
  "id" : 1932,
  "name" : "EGLISE DE PANTIN",
  "longitud" : 48.89363252797401,
  "latitud" : 2.41290026603005
}, {
  "id" : 1933,
  "name" : "ESPLANADE DE LA DÉFENSE",
  "longitud" : 48.88835806016618,
  "latitud" : 2.249937212862802
}, {
  "id" : 1934,
  "name" : "ETIENNE MARCEL",
  "longitud" : 48.86371036646956,
  "latitud" : 2.3489831961271017
}, {
  "id" : 1935,
  "name" : "EUROPE",
  "longitud" : 48.87906043921274,
  "latitud" : 2.3229746324058937
}, {
  "id" : 1936,
  "name" : "EXELMANS",
  "longitud" : 48.84290697853592,
  "latitud" : 2.2601443978808957
}, {
  "id" : 1938,
  "name" : "FALGUIÈRE",
  "longitud" : 48.84432338300201,
  "latitud" : 2.317564676180599
}, {
  "id" : 1941,
  "name" : "FONTAINE-MICHALON",
  "longitud" : 48.74332114096612,
  "latitud" : 2.2964154671011205
}, {
  "id" : 1942,
  "name" : "FONTENAY-AUX-ROSES",
  "longitud" : 48.787630847890284,
  "latitud" : 2.2920959929667464
}, {
  "id" : 1943,
  "name" : "FONTENAY-SOUS-BOIS",
  "longitud" : 48.8434118592224,
  "latitud" : 2.464815403274336
}, {
  "id" : 1944,
  "name" : "FORT D'AUBERVILLIERS",
  "longitud" : 48.91405674514657,
  "latitud" : 2.403576334511007
}, {
  "id" : 1945,
  "name" : "FRANKLIN-ROOSEVELT",
  "longitud" : 48.869010427937624,
  "latitud" : 2.3102531808960265
}, {
  "id" : 1947,
  "name" : "GABRIEL-PÉRI",
  "longitud" : 48.916574835983226,
  "latitud" : 2.2943289646870606
}, {
  "id" : 1948,
  "name" : "GAÎTÉ",
  "longitud" : 48.838751821388634,
  "latitud" : 2.322509186224712
}, {
  "id" : 1949,
  "name" : "GALLIENI (PARC DE BAGNOLET)",
  "longitud" : 48.86326252650054,
  "latitud" : 2.415975368499958
}, {
  "id" : 1951,
  "name" : "GARE D'AUSTERLITZ",
  "longitud" : 48.84341422414371,
  "latitud" : 2.3641883928676424
}, {
  "id" : 1953,
  "name" : "GARE DE L'EST (VERDUN)",
  "longitud" : 48.87669583602489,
  "latitud" : 2.3579925105504023
}, {
  "id" : 1957,
  "name" : "GARE DU NORD",
  "longitud" : 48.87974306422535,
  "latitud" : 2.3546008104722334
}, {
  "id" : 1959,
  "name" : "GARIBALDI",
  "longitud" : 48.906382164226436,
  "latitud" : 2.3319104734589318
}, {
  "id" : 1960,
  "name" : "GENTILLY",
  "longitud" : 48.81524997901088,
  "latitud" : 2.3409291775330954
}, {
  "id" : 1961,
  "name" : "GEORGE V",
  "longitud" : 48.87204561942636,
  "latitud" : 2.3007691856449535
}, {
  "id" : 1962,
  "name" : "GLACIÈRE",
  "longitud" : 48.8312479519874,
  "latitud" : 2.343122075822986
}, {
  "id" : 1963,
  "name" : "GONCOURT (HÔPITAL SAINT-LOUIS)",
  "longitud" : 48.87001535524704,
  "latitud" : 2.3707687990214654
}, {
  "id" : 1967,
  "name" : "CHÂTELET-LES HALLES",
  "longitud" : 48.86146371055862,
  "latitud" : 2.346844131603014
}, {
  "id" : 1969,
  "name" : "CHÂTILLON MONTROUGE",
  "longitud" : 48.810283363510756,
  "latitud" : 2.3012888709759522
}, {
  "id" : 1970,
  "name" : "CHATOU-CROISSY",
  "longitud" : 48.88519601564846,
  "latitud" : 2.155639305649673
}, {
  "id" : 1971,
  "name" : "CHAUSSÉE D'ANTIN (LA FAYETTE)",
  "longitud" : 48.872985824665165,
  "latitud" : 2.33342622405285
}, {
  "id" : 1974,
  "name" : "CHEVALERET",
  "longitud" : 48.83496497071995,
  "latitud" : 2.3680913458793973
}, {
  "id" : 1975,
  "name" : "CITÉ",
  "longitud" : 48.85568485028629,
  "latitud" : 2.3462029295287157
}, {
  "id" : 1976,
  "name" : "CITÉ UNIVERSITAIRE",
  "longitud" : 48.8207684717254,
  "latitud" : 2.339405170331693
}, {
  "id" : 1977,
  "name" : "CLUNY-LA SORBONNE",
  "longitud" : 48.85079575570429,
  "latitud" : 2.3450308883652258
}, {
  "id" : 1978,
  "name" : "COLONEL FABIEN",
  "longitud" : 48.87818498179219,
  "latitud" : 2.3701745466363584
}, {
  "id" : 1980,
  "name" : "CONCORDE",
  "longitud" : 48.86567809641779,
  "latitud" : 2.321193771801867
}, {
  "id" : 1983,
  "name" : "CONFLANS-FIN D'OISE",
  "longitud" : 48.989148509616854,
  "latitud" : 2.0743544773118536
}, {
  "id" : 1984,
  "name" : "CONVENTION",
  "longitud" : 48.83713694956265,
  "latitud" : 2.296396090155559
}, {
  "id" : 1985,
  "name" : "CORENTIN-CARIOU",
  "longitud" : 48.89468154198812,
  "latitud" : 2.382302193974242
}, {
  "id" : 1986,
  "name" : "CORENTIN-CELTON",
  "longitud" : 48.82682988739414,
  "latitud" : 2.278966861574341
}, {
  "id" : 1987,
  "name" : "CORVISART",
  "longitud" : 48.829863252112794,
  "latitud" : 2.3506227279320897
}, {
  "id" : 1988,
  "name" : "COURCELLE-SUR-YVETTE",
  "longitud" : 48.70093369048444,
  "latitud" : 2.099045428171641
}, {
  "id" : 1989,
  "name" : "COURCELLES",
  "longitud" : 48.87927215163157,
  "latitud" : 2.303298546682486
}, {
  "id" : 1993,
  "name" : "CROIX-DE-CHAVAUX (JACQUES DUCLOS)",
  "longitud" : 48.857999073258,
  "latitud" : 2.435866895674707
}, {
  "id" : 1996,
  "name" : "DENFERT-ROCHEREAU",
  "longitud" : 48.83427681284463,
  "latitud" : 2.332203797304786
}, {
  "id" : 1999,
  "name" : "DRANCY",
  "longitud" : 48.932709809148555,
  "latitud" : 2.455105345174671
}, {
  "id" : 2001,
  "name" : "BONNE NOUVELLE",
  "longitud" : 48.87049583233104,
  "latitud" : 2.348862117440598
}, {
  "id" : 2002,
  "name" : "BOTZARIS",
  "longitud" : 48.87960708893313,
  "latitud" : 2.389415569653207
}, {
  "id" : 2004,
  "name" : "BOULOGNE-JEAN-JAURÈS",
  "longitud" : 48.84228014352973,
  "latitud" : 2.238862975367271
}, {
  "id" : 2005,
  "name" : "BOULOGNE PONT DE SAINT-CLOUD",
  "longitud" : 48.84068016312195,
  "latitud" : 2.228313661724341
}, {
  "id" : 2006,
  "name" : "BOURG-LA-REINE",
  "longitud" : 48.78005093776892,
  "latitud" : 2.3121626259597874
}, {
  "id" : 2007,
  "name" : "BOURSE",
  "longitud" : 48.86876179259638,
  "latitud" : 2.3406741288121005
}, {
  "id" : 2008,
  "name" : "BRÉGUET-SABIN",
  "longitud" : 48.856803948960916,
  "latitud" : 2.3705968196318707
}, {
  "id" : 2009,
  "name" : "BROCHANT",
  "longitud" : 48.89062663302413,
  "latitud" : 2.320191121275328
}, {
  "id" : 2010,
  "name" : "BRY-SUR-MARNE",
  "longitud" : 48.84442645483315,
  "latitud" : 2.5263936672560128
}, {
  "id" : 2011,
  "name" : "BURES-SUR-YVETTE",
  "longitud" : 48.6957326504055,
  "latitud" : 2.163089675156206
}, {
  "id" : 2012,
  "name" : "BUSSY-SAINT-GEORGES",
  "longitud" : 48.83665082820275,
  "latitud" : 2.709854058543625
}, {
  "id" : 2013,
  "name" : "BUTTES-CHAUMONT",
  "longitud" : 48.877803956007845,
  "latitud" : 2.3812110997359883
}, {
  "id" : 2014,
  "name" : "BUZENVAL",
  "longitud" : 48.851767474505195,
  "latitud" : 2.4011814838726444
}, {
  "id" : 2015,
  "name" : "CADET",
  "longitud" : 48.875825718038186,
  "latitud" : 2.343345124573273
}, {
  "id" : 2016,
  "name" : "CAMBRONNE",
  "longitud" : 48.8476991081708,
  "latitud" : 2.302039143669263
}, {
  "id" : 2017,
  "name" : "CAMPO-FORMIO",
  "longitud" : 48.835551216675434,
  "latitud" : 2.358752095191401
}, {
  "id" : 2018,
  "name" : "CARDINAL-LEMOINE",
  "longitud" : 48.84670586906026,
  "latitud" : 2.351335178972595
}, {
  "id" : 2020,
  "name" : "CENSIER-DAUBENTON",
  "longitud" : 48.840594300001605,
  "latitud" : 2.351755612946688
}, {
  "id" : 2021,
  "name" : "CERGY-PRÉFECTURE",
  "longitud" : 49.03594383494343,
  "latitud" : 2.0801437572429307
}, {
  "id" : 2022,
  "name" : "CERGY-SAINT-CHRISTOPHE",
  "longitud" : 49.04976500165793,
  "latitud" : 2.0343451169898716
}, {
  "id" : 2024,
  "name" : "CHAMPIGNY",
  "longitud" : 48.80703580209233,
  "latitud" : 2.509901668386353
}, {
  "id" : 2025,
  "name" : "CHAMPS-ELYSÉES-CLÉMENCEAU",
  "longitud" : 48.867366570469784,
  "latitud" : 2.3141910633936584
}, {
  "id" : 2026,
  "name" : "CHARDON-LAGACHE",
  "longitud" : 48.845104139567006,
  "latitud" : 2.266936059032254
}, {
  "id" : 2028,
  "name" : "CHARLES DE GAULLE-ETOILE",
  "longitud" : 48.8739310942679,
  "latitud" : 2.295127251650101
}, {
  "id" : 2031,
  "name" : "CHARLES MICHELS",
  "longitud" : 48.8463629755008,
  "latitud" : 2.2856310658828742
}, {
  "id" : 2032,
  "name" : "CHARONNE",
  "longitud" : 48.85464204744478,
  "latitud" : 2.385032193334828
}, {
  "id" : 2033,
  "name" : "CHÂTEAU ROUGE",
  "longitud" : 48.887086283050444,
  "latitud" : 2.3493700732513783
}, {
  "id" : 2034,
  "name" : "CHÂTEAU D'EAU",
  "longitud" : 48.8724541509199,
  "latitud" : 2.3560561681302907
}, {
  "id" : 2035,
  "name" : "CHÂTEAU DE VINCENNES",
  "longitud" : 48.84432514436857,
  "latitud" : 2.440552346211822
}, {
  "id" : 2037,
  "name" : "ABBESSES",
  "longitud" : 48.8843997149084,
  "latitud" : 2.338399384171042
}, {
  "id" : 2039,
  "name" : "ACHÈRES-VILLE",
  "longitud" : 48.97024803923824,
  "latitud" : 2.0776719250412707
}, {
  "id" : 2040,
  "name" : "ALÉSIA",
  "longitud" : 48.82806601968645,
  "latitud" : 2.326827420050836
}, {
  "id" : 2041,
  "name" : "ALEXANDRE-DUMAS",
  "longitud" : 48.856426348325236,
  "latitud" : 2.394554257654992
}, {
  "id" : 2043,
  "name" : "ALMA-MARCEAU",
  "longitud" : 48.86429867104669,
  "latitud" : 2.3012514104499293
}, {
  "id" : 2044,
  "name" : "ANATOLE-FRANCE",
  "longitud" : 48.892018626328884,
  "latitud" : 2.2855174447944844
}, {
  "id" : 2045,
  "name" : "ANTONY",
  "longitud" : 48.75482748503882,
  "latitud" : 2.3008650705983067
}, {
  "id" : 2046,
  "name" : "ANVERS",
  "longitud" : 48.882871690180586,
  "latitud" : 2.344163572800391
}, {
  "id" : 2047,
  "name" : "ARCUEIL-CACHAN",
  "longitud" : 48.798442507735004,
  "latitud" : 2.328044198978203
}, {
  "id" : 2048,
  "name" : "ARGENTINE",
  "longitud" : 48.87567248598795,
  "latitud" : 2.289444164481448
}, {
  "id" : 2050,
  "name" : "ARTS-ET-MÉTIERS",
  "longitud" : 48.865551863634785,
  "latitud" : 2.356108155120312
}, {
  "id" : 2052,
  "name" : "ASSEMBLÉE NATIONALE",
  "longitud" : 48.86145390429487,
  "latitud" : 2.3203096905073557
}, {
  "id" : 2053,
  "name" : "AUBER",
  "longitud" : 48.87260817994105,
  "latitud" : 2.3297068164482293
}, {
  "id" : 2054,
  "name" : "LA COURNEUVE-AUBERVILLIERS",
  "longitud" : 48.924023434909344,
  "latitud" : 2.3844006646895615
}, {
  "id" : 2055,
  "name" : "AUBERVILLIERS PANTIN (4 CHEMINS)",
  "longitud" : 48.903898047529474,
  "latitud" : 2.3924800786724747
}, {
  "id" : 2056,
  "name" : "AULNAY-SOUS-BOIS",
  "longitud" : 48.93210876263909,
  "latitud" : 2.493309562581326
}, {
  "id" : 2057,
  "name" : "AVENUE EMILE-ZOLA",
  "longitud" : 48.846852151949776,
  "latitud" : 2.2954488279344742
}, {
  "id" : 2058,
  "name" : "AVRON",
  "longitud" : 48.851193819213286,
  "latitud" : 2.398239140823123
}, {
  "id" : 2059,
  "name" : "BAGNEUX",
  "longitud" : 48.79325579634385,
  "latitud" : 2.321324996317998
}, {
  "id" : 2061,
  "name" : "BARBÈS-ROCHECHOUART",
  "longitud" : 48.883931769934414,
  "latitud" : 2.3493557085996466
}, {
  "id" : 2062,
  "name" : "BASTILLE",
  "longitud" : 48.85297567465423,
  "latitud" : 2.3692188244433434
}, {
  "id" : 2065,
  "name" : "BEL-AIR",
  "longitud" : 48.84143200664826,
  "latitud" : 2.4008691933800934
}, {
  "id" : 2066,
  "name" : "BELLEVILLE",
  "longitud" : 48.87194579797485,
  "latitud" : 2.3767510413738
}, {
  "id" : 2067,
  "name" : "BÉRAULT",
  "longitud" : 48.84536875015732,
  "latitud" : 2.428244509620486
}, {
  "id" : 2069,
  "name" : "BIR-HAKEIM (GRENELLE)",
  "longitud" : 48.854327218552356,
  "latitud" : 2.2888101037361173
}, {
  "id" : 2070,
  "name" : "BLANC-MESNIL",
  "longitud" : 48.93220116999761,
  "latitud" : 2.4767508712199087
}, {
  "id" : 2071,
  "name" : "BLANCHE",
  "longitud" : 48.88377051883179,
  "latitud" : 2.332485148274094
}, {
  "id" : 2072,
  "name" : "BOBIGNY-PANTIN (RAYMOND QUENEAU)",
  "longitud" : 48.895799232549,
  "latitud" : 2.4248572983975945
}, {
  "id" : 2073,
  "name" : "BOISSIÈRE",
  "longitud" : 48.86685615476034,
  "latitud" : 2.2900380734450088
}, {
  "id" : 2074,
  "name" : "BOISSY-SAINT-LÉGER",
  "longitud" : 48.752988644666615,
  "latitud" : 2.5052228459567494
}, {
  "id" : 2075,
  "name" : "BOLIVAR",
  "longitud" : 48.880790122828465,
  "latitud" : 2.374155126662647
}, {
  "id" : 2078,
  "name" : "GIF-SUR-YVETTE",
  "longitud" : 48.69819921027547,
  "latitud" : 2.136928899354758
}, {
  "id" : 2079,
  "name" : "COURONNES",
  "longitud" : 48.86932916949657,
  "latitud" : 2.3805363661617247
}, {
  "id" : 2080,
  "name" : "CRIMÉE",
  "longitud" : 48.89028877504466,
  "latitud" : 2.3767786489253644
}, {
  "id" : 2081,
  "name" : "DAUMESNIL (FÉLIX EBOUÉ)",
  "longitud" : 48.83937646312499,
  "latitud" : 2.3957880604156494
}, {
  "id" : 2082,
  "name" : "DUGOMMIER",
  "longitud" : 48.83887615167852,
  "latitud" : 2.3893473875702935
}, {
  "id" : 2085,
  "name" : "CHÂTEAU LANDON",
  "longitud" : 48.87845656683119,
  "latitud" : 2.3620537162488993
}, {
  "id" : 2088,
  "name" : "BILLANCOURT",
  "longitud" : 48.832087644282545,
  "latitud" : 2.238160776875514
}, {
  "id" : 2089,
  "name" : "BOBIGNY-PABLO-PICASSO",
  "longitud" : 48.907147312551565,
  "latitud" : 2.44945750453114
}, {
  "id" : 2090,
  "name" : "FUNICULAIRE GARE BASSE",
  "longitud" : 48.88469617855217,
  "latitud" : 2.342610282962049
}, {
  "id" : 2091,
  "name" : "FUNICULAIRE GARE HAUTE",
  "longitud" : 48.88557692951087,
  "latitud" : 2.3425422354115337
}, {
  "id" : 2224140,
  "name" : "OPERA",
  "longitud" : 48.8720959556315,
  "latitud" : 2.3305924621304466
}, {
  "id" : 2224144,
  "name" : "TERMINAL-2E-2F",
  "longitud" : 49.00448399424438,
  "latitud" : 2.5765752679900706
}, {
  "id" : 2224147,
  "name" : "TERMINAL-2A",
  "longitud" : 49.002940341238975,
  "latitud" : 2.5616528215534498
}, {
  "id" : 2224148,
  "name" : "TERMINAL-2C",
  "longitud" : 49.00323498837725,
  "latitud" : 2.5673771278540025
}, {
  "id" : 2224149,
  "name" : "TERMINAL-2E",
  "longitud" : 49.003726512420066,
  "latitud" : 2.577883018028986
}, {
  "id" : 2224150,
  "name" : "TERMINAL-2F",
  "longitud" : 49.00499429300713,
  "latitud" : 2.577533777143391
}, {
  "id" : 2224151,
  "name" : "TERMINAL-2D",
  "longitud" : 49.00432424604342,
  "latitud" : 2.5663848634793127
}, {
  "id" : 2224153,
  "name" : "AEROPORT CHARLES DE GAULLE (T3-ROISSYPOLE)",
  "longitud" : 49.01040231869564,
  "latitud" : 2.5598819987043124
}, {
  "id" : 2256,
  "name" : "EGLISE D'AUTEUIL",
  "longitud" : 48.84753224211661,
  "latitud" : 2.2694792821877074
}, {
  "id" : 22791,
  "name" : "ORLY 1-2-3",
  "longitud" : 48.729564991359986,
  "latitud" : 2.359564239369551
}, {
  "id" : 22793,
  "name" : "ORLY 4",
  "longitud" : 48.7289245757609,
  "latitud" : 2.369359943921722
}, {
  "id" : 2346,
  "name" : "PORTE D'AUTEUIL",
  "longitud" : 48.84822598041119,
  "latitud" : 2.257698885660922
}, {
  "id" : 2771311,
  "name" : "ACHÈRES GRAND CORMIER",
  "longitud" : 48.95538833370657,
  "latitud" : 2.0924570116886043
}, {
  "id" : 3343334,
  "name" : "BALARD",
  "longitud" : 48.836814988805976,
  "latitud" : 2.2786833464502703
}, {
  "id" : 3343336,
  "name" : "LOURMEL",
  "longitud" : 48.83866812903008,
  "latitud" : 2.2822484883840986
}, {
  "id" : 3343338,
  "name" : "BOUCICAUT",
  "longitud" : 48.84102535532167,
  "latitud" : 2.287923867330867
}, {
  "id" : 3343746,
  "name" : "FÉLIX FAURE",
  "longitud" : 48.84282456767407,
  "latitud" : 2.2922249662205156
}, {
  "id" : 3343753,
  "name" : "COMMERCE",
  "longitud" : 48.84461367199405,
  "latitud" : 2.293802980169146
}, {
  "id" : 3343757,
  "name" : "ECOLE MILITAIRE",
  "longitud" : 48.85426092155411,
  "latitud" : 2.305439560539011
}, {
  "id" : 3343759,
  "name" : "LA TOUR-MAUBOURG",
  "longitud" : 48.85722786064964,
  "latitud" : 2.3097962258273563
}, {
  "id" : 3343779,
  "name" : "FILLES DU CALVAIRE",
  "longitud" : 48.86307817635541,
  "latitud" : 2.36674588358473
}, {
  "id" : 3343781,
  "name" : "SAINT-SÉBASTIEN-FROISSART",
  "longitud" : 48.86097499718719,
  "latitud" : 2.3672622950229414
}, {
  "id" : 3343783,
  "name" : "CHEMIN VERT",
  "longitud" : 48.85758654446453,
  "latitud" : 2.3680366949483758
}, {
  "id" : 3343787,
  "name" : "LEDRU-ROLLIN",
  "longitud" : 48.85119416536367,
  "latitud" : 2.3759317370128947
}, {
  "id" : 3343789,
  "name" : "FAIDHERBE-CHALIGNY",
  "longitud" : 48.85006766800271,
  "latitud" : 2.3844287707416316
}, {
  "id" : 3343793,
  "name" : "MONTGALLET",
  "longitud" : 48.844403092096876,
  "latitud" : 2.39025165315774
}, {
  "id" : 3343797,
  "name" : "MICHEL BIZOT",
  "longitud" : 48.836991037652965,
  "latitud" : 2.402919606870042
}, {
  "id" : 3343799,
  "name" : "PORTE DORÉE",
  "longitud" : 48.83549725282465,
  "latitud" : 2.4061852122149348
}, {
  "id" : 3343801,
  "name" : "PORTE DE CHARENTON",
  "longitud" : 48.83266034648216,
  "latitud" : 2.4004636384497804
}, {
  "id" : 3343803,
  "name" : "LIBERTÉ",
  "longitud" : 48.82563711172796,
  "latitud" : 2.4074108054261223
}, {
  "id" : 3343805,
  "name" : "CHARENTON-ECOLES",
  "longitud" : 48.821489819145576,
  "latitud" : 2.4138567623311062
}, {
  "id" : 3343807,
  "name" : "ECOLE VÉTÉRINAIRE DE MAISONS-ALFORT",
  "longitud" : 48.81507632012976,
  "latitud" : 2.4216317667306635
}, {
  "id" : 3343809,
  "name" : "MAISONS-ALFORT-STADE",
  "longitud" : 48.808225347352376,
  "latitud" : 2.4362758210511313
}, {
  "id" : 3343811,
  "name" : "MAISONS-ALFORT-LES JUILLIOTTES",
  "longitud" : 48.80250044183061,
  "latitud" : 2.4461836185594534
}, {
  "id" : 3343813,
  "name" : "CRÉTEIL-L'ECHAT (HÔPITAL HENRI MONDOR)",
  "longitud" : 48.79660129757846,
  "latitud" : 2.4495315243760767
}, {
  "id" : 3343815,
  "name" : "CRÉTEIL-UNIVERSITÉ",
  "longitud" : 48.78972431608003,
  "latitud" : 2.450836106390663
}, {
  "id" : 3343817,
  "name" : "CRÉTEIL-PRÉFECTURE (HÔTEL DE VILLE)",
  "longitud" : 48.779757257844594,
  "latitud" : 2.4593142910788286
}, {
  "id" : 3343819,
  "name" : "POINTE DU LAC",
  "longitud" : 48.76876863574218,
  "latitud" : 2.464319398948263
}, {
  "id" : 3442415,
  "name" : "CHATELET",
  "longitud" : 48.858389963548795,
  "latitud" : 2.3474837299932694
}, {
  "id" : 3442417,
  "name" : "PONT NEUF - QUAI DU LOUVRE",
  "longitud" : 48.859199141976376,
  "latitud" : 2.3427847194148588
}, {
  "id" : 3442419,
  "name" : "PONT NEUF - QUAI DES GRANDS AUGUSTINS",
  "longitud" : 48.85612555459301,
  "latitud" : 2.339229577879742
}, {
  "id" : 3442421,
  "name" : "MAZARINE",
  "longitud" : 48.85424719280736,
  "latitud" : 2.3380309918243136
}, {
  "id" : 3442422,
  "name" : "SAINT-GERMAIN - ODEON",
  "longitud" : 48.852665395307476,
  "latitud" : 2.338616587995348
}, {
  "id" : 3442426,
  "name" : "MUSEE DU LUXEMBOURG",
  "longitud" : 48.848297391527026,
  "latitud" : 2.332433937253808
}, {
  "id" : 3442428,
  "name" : "GUYNEMER-VAVIN",
  "longitud" : 48.84531353282014,
  "latitud" : 2.332257191655835
}, {
  "id" : 3442429,
  "name" : "BREA - NOTRE-DAME-DES-CHAMPS",
  "longitud" : 48.843794538635784,
  "latitud" : 2.330214827150182
}, {
  "id" : 3442432,
  "name" : "PLACE DU 18 JUIN 1940",
  "longitud" : 48.84375813058096,
  "latitud" : 2.32465920663277
}, {
  "id" : 3442433,
  "name" : "PLACE DU 18 JUIN 1940 - RUE DU DEPART",
  "longitud" : 48.843030042304264,
  "latitud" : 2.3237606918694826
}, {
  "id" : 3442435,
  "name" : "GARE MONTPARNASSE",
  "longitud" : 48.84121427664235,
  "latitud" : 2.3214600496903803
}, {
  "id" : 3442437,
  "name" : "GAITE",
  "longitud" : 48.838473162558955,
  "latitud" : 2.322155266515556
}, {
  "id" : 3442439,
  "name" : "LOSSERAND - MAINE",
  "longitud" : 48.83643311204049,
  "latitud" : 2.323204200254015
}, {
  "id" : 3442442,
  "name" : "RUE BENARD",
  "longitud" : 48.83113950707736,
  "latitud" : 2.3239952116528007
}, {
  "id" : 3442443,
  "name" : "ALESIA - LES PLANTES",
  "longitud" : 48.8297732621904,
  "latitud" : 2.3229065159485742
}, {
  "id" : 3442444,
  "name" : "HOP. NOTRE-DAME DE BON SECOURS - A. CHANTIN",
  "longitud" : 48.82731933611228,
  "latitud" : 2.320593083648976
}, {
  "id" : 3442445,
  "name" : "JEAN MOULIN",
  "longitud" : 48.82501817642889,
  "latitud" : 2.318443156009455
}, {
  "id" : 3442446,
  "name" : "PORTE DE CHATILLON",
  "longitud" : 48.82392134347583,
  "latitud" : 2.316415436356412
}, {
  "id" : 3442447,
  "name" : "PORTE DIDOT - LYCEE RASPAIL",
  "longitud" : 48.82522348024152,
  "latitud" : 2.3109837788430045
}, {
  "id" : 3442450,
  "name" : "PONT DE LA VALLEE",
  "longitud" : 48.825724272247164,
  "latitud" : 2.301346230632191
}, {
  "id" : 3442452,
  "name" : "JEAN JAURES-JEAN BLEUZEN",
  "longitud" : 48.823961475287824,
  "latitud" : 2.2975226085352562
}, {
  "id" : 3442454,
  "name" : "CARREFOUR ALBERT LEGRIS",
  "longitud" : 48.82531703856575,
  "latitud" : 2.2930568701205836
}, {
  "id" : 3442456,
  "name" : "VANVES-LYCEE MICHELET",
  "longitud" : 48.823526651568685,
  "latitud" : 2.288348842384806
}, {
  "id" : 3442458,
  "name" : "COLONEL MONTEIL",
  "longitud" : 48.826409717109186,
  "latitud" : 2.310384242567495
}, {
  "id" : 3442459,
  "name" : "DIDOT",
  "longitud" : 48.8262395129285,
  "latitud" : 2.3129978602230077
}, {
  "id" : 3442460,
  "name" : "HOPITAUX BROUSSAIS ET SAINT-JOSEPH",
  "longitud" : 48.827848760764425,
  "latitud" : 2.315365692642206
}, {
  "id" : 3442461,
  "name" : "ALESIA - DIDOT",
  "longitud" : 48.830743470862615,
  "latitud" : 2.319530145833741
}, {
  "id" : 3442463,
  "name" : "CHATEAU",
  "longitud" : 48.83391641885554,
  "latitud" : 2.3218434670025436
}, {
  "id" : 3442464,
  "name" : "NOTRE-DAME-DES-CHAMPS",
  "longitud" : 48.84462130823025,
  "latitud" : 2.3289347211572275
}, {
  "id" : 3442465,
  "name" : "RASPAIL - FLEURUS",
  "longitud" : 48.84673334739729,
  "latitud" : 2.328566709715835
}, {
  "id" : 3442466,
  "name" : "FLEURUS",
  "longitud" : 48.847012094509715,
  "latitud" : 2.3306637708477678
}, {
  "id" : 3442467,
  "name" : "THEATRE DE L'ODEON",
  "longitud" : 48.84969053529712,
  "latitud" : 2.339106768100015
}, {
  "id" : 3442468,
  "name" : "SAINT-ANDRE DES ARTS",
  "longitud" : 48.854031486026855,
  "latitud" : 2.3388345347253066
}, {
  "id" : 3442544,
  "name" : "PORTE D'ORLEANS-METRO",
  "longitud" : 48.82225073510656,
  "latitud" : 2.3241199820135248
}, {
  "id" : 3442546,
  "name" : "GABRIELLE DE GUERCHY",
  "longitud" : 48.81911390513648,
  "latitud" : 2.3230319546022735
}, {
  "id" : 3442547,
  "name" : "MAIRIE DE MONTROUGE-METRO",
  "longitud" : 48.81846643003522,
  "latitud" : 2.320282893007561
}, {
  "id" : 3442549,
  "name" : "RADIGUEY",
  "longitud" : 48.81950798619571,
  "latitud" : 2.314225939021195
}, {
  "id" : 3442551,
  "name" : "PIERRE BROSSOLETTE - GABRIEL PERI",
  "longitud" : 48.81998343698229,
  "latitud" : 2.309979254511882
}, {
  "id" : 3442553,
  "name" : "PIERRE LAROUSSE - CARREFOUR DU 8 MAI 1945",
  "longitud" : 48.81947891694374,
  "latitud" : 2.305134231392822
}, {
  "id" : 3442555,
  "name" : "GABRIEL PERI - ANDRE COIN",
  "longitud" : 48.8193243854821,
  "latitud" : 2.2992274481183093
}, {
  "id" : 3442557,
  "name" : "GARE DE VANVES-MALAKOFF",
  "longitud" : 48.819350359014884,
  "latitud" : 2.2962467674293867
}, {
  "id" : 3442559,
  "name" : "CARREFOUR DE L'INSURRECTION",
  "longitud" : 48.820319278175376,
  "latitud" : 2.2914414666017158
}, {
  "id" : 3442561,
  "name" : "MAIRIE DE VANVES - CENTRE ADMINISTRATIF",
  "longitud" : 48.82101042839377,
  "latitud" : 2.289154248327772
}, {
  "id" : 3442563,
  "name" : "PLACE DU MARECHAL DE LATTRE DE TASSIGNY",
  "longitud" : 48.82234784339921,
  "latitud" : 2.2850016190088835
}, {
  "id" : 3442565,
  "name" : "GENERAL DE GAULLE",
  "longitud" : 48.82444080124116,
  "latitud" : 2.2823996840556604
}, {
  "id" : 3442567,
  "name" : "CORENTIN CELTON-METRO",
  "longitud" : 48.82720738847164,
  "latitud" : 2.2790072747528933
}, {
  "id" : 3442571,
  "name" : "PRESIDENT ROBERT SCHUMAN",
  "longitud" : 48.82818035188838,
  "latitud" : 2.2666459002261536
}, {
  "id" : 3442573,
  "name" : "ISSY-VAL DE SEINE",
  "longitud" : 48.82925699477459,
  "latitud" : 2.2635543003254757
}, {
  "id" : 3442575,
  "name" : "QUAI DU POINT DU JOUR",
  "longitud" : 48.831355726189834,
  "latitud" : 2.2567990330672387
}, {
  "id" : 3442577,
  "name" : "RUE DU POINT DU JOUR",
  "longitud" : 48.83235026875346,
  "latitud" : 2.2523594109120637
}, {
  "id" : 3442579,
  "name" : "DANJOU",
  "longitud" : 48.83297563047782,
  "latitud" : 2.2472259445746032
}, {
  "id" : 3442581,
  "name" : "MARCEL SEMBAT-METRO",
  "longitud" : 48.8342214348433,
  "latitud" : 2.242744699572587
}, {
  "id" : 3442583,
  "name" : "HOTEL DE VILLE DE BOULOGNE-BILLANCOURT",
  "longitud" : 48.83588142081512,
  "latitud" : 2.2393788520159355
}, {
  "id" : 3442585,
  "name" : "ANCIENNE MAIRIE DE BOULOGNE-BILLANCOURT",
  "longitud" : 48.83821357524038,
  "latitud" : 2.233914723381056
}, {
  "id" : 3442587,
  "name" : "RHIN ET DANUBE",
  "longitud" : 48.84033073918953,
  "latitud" : 2.229512589551977
}, {
  "id" : 3442590,
  "name" : "PONT DE SAINT-CLOUD - ALBERT KAHN",
  "longitud" : 48.840795898892736,
  "latitud" : 2.2271152138204995
}, {
  "id" : 3442592,
  "name" : "PARC DE SAINT-CLOUD",
  "longitud" : 48.842921256251245,
  "latitud" : 2.2221542872862083
}, {
  "id" : 3442594,
  "name" : "LA COLLINE",
  "longitud" : 48.841301977307396,
  "latitud" : 2.220592028353918
}, {
  "id" : 3442595,
  "name" : "PONT DE SAINT-CLOUD - RIVE GAUCHE",
  "longitud" : 48.84092591926018,
  "latitud" : 2.222049786002583
}, {
  "id" : 3442596,
  "name" : "CIMETIERE DE MONTROUGE",
  "longitud" : 48.82092920464647,
  "latitud" : 2.321330114745524
}, {
  "id" : 3446763,
  "name" : "EGLISE DE PANTIN-METRO",
  "longitud" : 48.893506220948495,
  "latitud" : 2.4136633508040126
}, {
  "id" : 3446765,
  "name" : "PIERRE BROSSOLETTE",
  "longitud" : 48.89449016835275,
  "latitud" : 2.4205888747702486
}, {
  "id" : 3446767,
  "name" : "RAYMOND QUENEAU-METRO",
  "longitud" : 48.89530457817166,
  "latitud" : 2.425347152348767
}, {
  "id" : 3446769,
  "name" : "RAYMOND QUENEAU - ROUTE DE NOISY",
  "longitud" : 48.895303644872406,
  "latitud" : 2.4266011366189213
}, {
  "id" : 3446771,
  "name" : "LOUISE DORY",
  "longitud" : 48.893760443531676,
  "latitud" : 2.4347627719363105
}, {
  "id" : 3446773,
  "name" : "PAUL DE KOCK",
  "longitud" : 48.8928759497416,
  "latitud" : 2.4392452609643303
}, {
  "id" : 3446775,
  "name" : "RUE DU PARC - VAILLANT-COUTURIER",
  "longitud" : 48.89164801754887,
  "latitud" : 2.4456758850678475
}, {
  "id" : 3446777,
  "name" : "CHAALONS",
  "longitud" : 48.89105209927494,
  "latitud" : 2.448673055310972
}, {
  "id" : 3446779,
  "name" : "JEANNE D'ARC",
  "longitud" : 48.88963634548666,
  "latitud" : 2.453658151289903
}, {
  "id" : 3446781,
  "name" : "SALENGRO - AUFFRET",
  "longitud" : 48.88795206366205,
  "latitud" : 2.457361281126736
}, {
  "id" : 3446783,
  "name" : "SQUARE STEPHENSON",
  "longitud" : 48.88773963962272,
  "latitud" : 2.462907506964655
}, {
  "id" : 3446785,
  "name" : "BREMENT",
  "longitud" : 48.88689746317569,
  "latitud" : 2.468806424028347
}, {
  "id" : 3446787,
  "name" : "ROSNY 2 NORD",
  "longitud" : 48.88614380970485,
  "latitud" : 2.4756184531702474
}, {
  "id" : 3446789,
  "name" : "CHEMIN DE BONDY",
  "longitud" : 48.88501464517659,
  "latitud" : 2.4804941157949116
}, {
  "id" : 3446791,
  "name" : "BOIS-PERRIER RER-ROSNY 2",
  "longitud" : 48.88254176223837,
  "latitud" : 2.481645572385037
}, {
  "id" : 3446793,
  "name" : "JEAN DE MAILLY - HOFFMANN",
  "longitud" : 48.87772731972372,
  "latitud" : 2.486714539865411
}, {
  "id" : 3446795,
  "name" : "KELLERMANN",
  "longitud" : 48.87906103055954,
  "latitud" : 2.490956079507645
}, {
  "id" : 3446797,
  "name" : "CIMETIERE DE VILLEMOMBLE",
  "longitud" : 48.882628288290526,
  "latitud" : 2.4982843380018736
}, {
  "id" : 3446799,
  "name" : "11 NOVEMBRE",
  "longitud" : 48.88063918583701,
  "latitud" : 2.4937269266873483
}, {
  "id" : 3446800,
  "name" : "ECHANGEUR DE ROSNY",
  "longitud" : 48.88665008637998,
  "latitud" : 2.473016853292156
}, {
  "id" : 3616865,
  "name" : "BRY-SUR-MARNE RER",
  "longitud" : 48.8440225144832,
  "latitud" : 2.5260790072465844
}, {
  "id" : 3616867,
  "name" : "CLEMENCEAU",
  "longitud" : 48.843540466522846,
  "latitud" : 2.52964483125536
}, {
  "id" : 3616869,
  "name" : "FRANCOIS DE TROY",
  "longitud" : 48.84176361706178,
  "latitud" : 2.5335052561815465
}, {
  "id" : 3616870,
  "name" : "LA FONTAINE",
  "longitud" : 48.83813918886252,
  "latitud" : 2.5349756139390753
}, {
  "id" : 3616872,
  "name" : "MOLIERE",
  "longitud" : 48.83614857791696,
  "latitud" : 2.53216338463
}, {
  "id" : 3616876,
  "name" : "LES HAUTS DE BRY",
  "longitud" : 48.83567887624975,
  "latitud" : 2.5335911585549136
}, {
  "id" : 3616878,
  "name" : "LAMARTINE",
  "longitud" : 48.8426003519002,
  "latitud" : 2.5329637627590316
}, {
  "id" : 3616879,
  "name" : "MARX DORMOY-CARNOT",
  "longitud" : 48.845457082416395,
  "latitud" : 2.5282357489753844
}, {
  "id" : 3616888,
  "name" : "GALLIENI",
  "longitud" : 48.86483476496128,
  "latitud" : 2.416808713810419
}, {
  "id" : 3616894,
  "name" : "BOIS-PERRIER NORD",
  "longitud" : 48.88423567991556,
  "latitud" : 2.4854523315455075
}, {
  "id" : 3616896,
  "name" : "LES MARNAUDES",
  "longitud" : 48.88324072702506,
  "latitud" : 2.4904778963421714
}, {
  "id" : 3616900,
  "name" : "MEISSONIER",
  "longitud" : 48.8840717972597,
  "latitud" : 2.500809881754717
}, {
  "id" : 3616902,
  "name" : "AVENUE DU RAINCY",
  "longitud" : 48.88445778624342,
  "latitud" : 2.5075566880359537
}, {
  "id" : 3616904,
  "name" : "CHATEAU DE VILLEMOMBLE",
  "longitud" : 48.883851222336425,
  "latitud" : 2.510620836271264
}, {
  "id" : 3616906,
  "name" : "RUE DE NEUILLY",
  "longitud" : 48.882703747741374,
  "latitud" : 2.514759604548513
}, {
  "id" : 3616908,
  "name" : "BOULEVARD ANDRE",
  "longitud" : 48.88180455357744,
  "latitud" : 2.5209975811063257
}, {
  "id" : 3616910,
  "name" : "GAGNY RER",
  "longitud" : 48.88258813081213,
  "latitud" : 2.525674408360806
}, {
  "id" : 3616912,
  "name" : "JEAN JAURES - HENRI BARBUSSE",
  "longitud" : 48.884330650081715,
  "latitud" : 2.5318948493778644
}, {
  "id" : 3616914,
  "name" : "CHARLES DE GAULLE",
  "longitud" : 48.88438894268836,
  "latitud" : 2.534702321902295
}, {
  "id" : 3616916,
  "name" : "FLORIAN",
  "longitud" : 48.881794404760505,
  "latitud" : 2.538412546009786
}, {
  "id" : 3616920,
  "name" : "MONTGUICHET-ARENA",
  "longitud" : 48.878939904677495,
  "latitud" : 2.5468359738969046
}, {
  "id" : 3616922,
  "name" : "LA MARE",
  "longitud" : 48.87672538178333,
  "latitud" : 2.548898087819418
}, {
  "id" : 3616924,
  "name" : "EMILE COSSONNEAU",
  "longitud" : 48.87478871518722,
  "latitud" : 2.5513562940251218
}, {
  "id" : 3616926,
  "name" : "RUE DE LA POINTE",
  "longitud" : 48.86937996713038,
  "latitud" : 2.5554073894083706
}, {
  "id" : 3616928,
  "name" : "POINTE DE GOURNAY",
  "longitud" : 48.865591003348804,
  "latitud" : 2.5630609260390105
}, {
  "id" : 3616930,
  "name" : "LEON BRY",
  "longitud" : 48.88583786198462,
  "latitud" : 2.5335085925330727
}, {
  "id" : 3619132,
  "name" : "RUE LEGRAND",
  "longitud" : 48.82426854673942,
  "latitud" : 2.302272827735108
}, {
  "id" : 3619139,
  "name" : "ETIENNE DOLET-METRO",
  "longitud" : 48.81766933047489,
  "latitud" : 2.29530901330129
}, {
  "id" : 3619143,
  "name" : "ROND-POINT HENRI BARBUSSE",
  "longitud" : 48.81377438920338,
  "latitud" : 2.286915490287406
}, {
  "id" : 3619145,
  "name" : "BARBUSSE-VEDRINES",
  "longitud" : 48.81094253979071,
  "latitud" : 2.285271653231755
}, {
  "id" : 3619149,
  "name" : "HEBERT",
  "longitud" : 48.81140571088759,
  "latitud" : 2.2764258295286113
}, {
  "id" : 3619150,
  "name" : "LAZARE-CARNOT",
  "longitud" : 48.808348823377074,
  "latitud" : 2.2744155092732736
}, {
  "id" : 3619152,
  "name" : "MARIE DOFFE",
  "longitud" : 48.80524747803089,
  "latitud" : 2.2733715521657585
}, {
  "id" : 3619154,
  "name" : "VOIE VERTE",
  "longitud" : 48.80229825705779,
  "latitud" : 2.2711438196899305
}, {
  "id" : 3619155,
  "name" : "MARCHE DE CLAMART",
  "longitud" : 48.80154891433794,
  "latitud" : 2.2653623664378313
}, {
  "id" : 3619157,
  "name" : "MAIRIE DE CLAMART",
  "longitud" : 48.80004684776907,
  "latitud" : 2.263568550303808
}, {
  "id" : 3619159,
  "name" : "PLACE HUNEBELLE",
  "longitud" : 48.800746208750255,
  "latitud" : 2.260887283207438
}, {
  "id" : 3619161,
  "name" : "POSTE",
  "longitud" : 48.801554374313845,
  "latitud" : 2.259743218545664
}, {
  "id" : 3619163,
  "name" : "PLACE DU GARDE",
  "longitud" : 48.803287035854865,
  "latitud" : 2.2567472852047867
}, {
  "id" : 3619165,
  "name" : "PIERRE CORBY",
  "longitud" : 48.801642529417165,
  "latitud" : 2.2718385446972253
}, {
  "id" : 3619166,
  "name" : "LE PARC",
  "longitud" : 48.8131026752346,
  "latitud" : 2.2928631391203314
}, {
  "id" : 3619167,
  "name" : "ALEXIS MARTIN",
  "longitud" : 48.81419127111396,
  "latitud" : 2.2958561826681723
}, {
  "id" : 3619168,
  "name" : "MAURICE THOREZ",
  "longitud" : 48.816448613894025,
  "latitud" : 2.3001686149082823
}, {
  "id" : 3619169,
  "name" : "AUGUSTIN DUMONT",
  "longitud" : 48.8179051379773,
  "latitud" : 2.3018552078239987
}, {
  "id" : 3619285,
  "name" : "PREFECTURE DU VAL-DE-MARNE",
  "longitud" : 48.78469719889788,
  "latitud" : 2.453790187326245
}, {
  "id" : 3619287,
  "name" : "CROIX DES MECHES",
  "longitud" : 48.78529175404654,
  "latitud" : 2.452404176996184
}, {
  "id" : 3619289,
  "name" : "PREFECTURE DU VAL-DE-MARNE.",
  "longitud" : 48.78355751481648,
  "latitud" : 2.4519515004641765
}, {
  "id" : 3619291,
  "name" : "LYCEE SAINT-EXUPERY",
  "longitud" : 48.782266577868384,
  "latitud" : 2.4576745123491808
}, {
  "id" : 3619293,
  "name" : "CRETEIL - PREFECTURE METRO",
  "longitud" : 48.77976663603938,
  "latitud" : 2.4589335139487987
}, {
  "id" : 3619294,
  "name" : "JOHN KENNEDY",
  "longitud" : 48.777712959312176,
  "latitud" : 2.463171726467112
}, {
  "id" : 3619296,
  "name" : "RENE ARCOS",
  "longitud" : 48.777628137730986,
  "latitud" : 2.466829762690551
}, {
  "id" : 3619298,
  "name" : "EMOULEUSES",
  "longitud" : 48.77711868166071,
  "latitud" : 2.472336200280042
}, {
  "id" : 3619300,
  "name" : "LA GAITE",
  "longitud" : 48.78091016463046,
  "latitud" : 2.4736108859036237
}, {
  "id" : 3619302,
  "name" : "REGARD",
  "longitud" : 48.77615741871018,
  "latitud" : 2.4796499789115707
}, {
  "id" : 3619304,
  "name" : "AVENUE DE CHOISY",
  "longitud" : 48.77406883122277,
  "latitud" : 2.4824319434364592
}, {
  "id" : 3619306,
  "name" : "ECOLES",
  "longitud" : 48.77385846776697,
  "latitud" : 2.4853822150721703
}, {
  "id" : 3619308,
  "name" : "MAIRIE DE BONNEUIL",
  "longitud" : 48.77374863621866,
  "latitud" : 2.4869593166419084
}, {
  "id" : 3619310,
  "name" : "PETITS CARREAUX",
  "longitud" : 48.77305325543818,
  "latitud" : 2.4964216758206126
}, {
  "id" : 3619312,
  "name" : "SUCY-BONNEUIL RER",
  "longitud" : 48.77220436360905,
  "latitud" : 2.50585608971384
}, {
  "id" : 3619316,
  "name" : "CITE VERTE-GRAND VAL",
  "longitud" : 48.77412789450505,
  "latitud" : 2.518033000257376
}, {
  "id" : 3619318,
  "name" : "LA FOSSE ROUGE",
  "longitud" : 48.77532329544903,
  "latitud" : 2.5238574585658164
}, {
  "id" : 3619320,
  "name" : "PLACE DEGAS",
  "longitud" : 48.77419771887842,
  "latitud" : 2.5251724733426917
}, {
  "id" : 3619322,
  "name" : "CENTRE ADMINISTRATIF",
  "longitud" : 48.77144734525404,
  "latitud" : 2.5251897205020413
}, {
  "id" : 3619324,
  "name" : "RUE DE NOISEAU",
  "longitud" : 48.77304880233939,
  "latitud" : 2.529818913875126
}, {
  "id" : 3619326,
  "name" : "LE MORBRAS",
  "longitud" : 48.77686997422665,
  "latitud" : 2.5345384149897368
}, {
  "id" : 3619327,
  "name" : "RUE DE L'ANCIEN MOULIN",
  "longitud" : 48.778720298304705,
  "latitud" : 2.535266227766504
}, {
  "id" : 3619329,
  "name" : "OLIVIER D'ORMESSON",
  "longitud" : 48.78411852447511,
  "latitud" : 2.53739498409188
}, {
  "id" : 3619331,
  "name" : "JULES FERRY",
  "longitud" : 48.78284080780033,
  "latitud" : 2.5328473928197113
}, {
  "id" : 3619333,
  "name" : "AMBOILE-CENTRE",
  "longitud" : 48.786250502173885,
  "latitud" : 2.5308607846746427
}, {
  "id" : 3619335,
  "name" : "NOISEAU-AMBOILE",
  "longitud" : 48.79023939707876,
  "latitud" : 2.531936668901471
}, {
  "id" : 3619337,
  "name" : "8 MAI 1945",
  "longitud" : 48.79155086953002,
  "latitud" : 2.5324040901775438
}, {
  "id" : 3619339,
  "name" : "HOTEL DE VILLE DE CHENNEVIERES",
  "longitud" : 48.79465885728643,
  "latitud" : 2.5335176858054145
}, {
  "id" : 3619341,
  "name" : "SAINT-SIMEON",
  "longitud" : 48.798657748335636,
  "latitud" : 2.533954554133798
}, {
  "id" : 3619343,
  "name" : "ZONE INDUSTRIELLE",
  "longitud" : 48.79912952538127,
  "latitud" : 2.541996937647471
}, {
  "id" : 3619345,
  "name" : "SONNETTES",
  "longitud" : 48.79752832516121,
  "latitud" : 2.5479222529897454
}, {
  "id" : 3619347,
  "name" : "CHAMPLAIN - PAGNOL",
  "longitud" : 48.799315782145634,
  "latitud" : 2.553562026756877
}, {
  "id" : 3619349,
  "name" : "CLEMENT ADER - LES BORDES",
  "longitud" : 48.802840579634356,
  "latitud" : 2.5527059245772157
}, {
  "id" : 3619351,
  "name" : "RABELAIS",
  "longitud" : 48.803402791710575,
  "latitud" : 2.5499461998796162
}, {
  "id" : 3619353,
  "name" : "CLAUDE BERNARD",
  "longitud" : 48.804622389298956,
  "latitud" : 2.546427109100898
}, {
  "id" : 3619355,
  "name" : "RODIN",
  "longitud" : 48.80599270326873,
  "latitud" : 2.54915400470061
}, {
  "id" : 3619359,
  "name" : "VETERANS",
  "longitud" : 48.808558299603284,
  "latitud" : 2.5518995937052056
}, {
  "id" : 3619361,
  "name" : "FAUVETTES",
  "longitud" : 48.80899429838175,
  "latitud" : 2.549343156172185
}, {
  "id" : 3619363,
  "name" : "COLOMBE-HARDELET",
  "longitud" : 48.80959083245967,
  "latitud" : 2.5423103529294875
}, {
  "id" : 3619364,
  "name" : "LES MORDACS",
  "longitud" : 48.808618224470386,
  "latitud" : 2.5381698136887874
}, {
  "id" : 3619366,
  "name" : "11 NOVEMBRE 1918",
  "longitud" : 48.811254036529974,
  "latitud" : 2.536751149327536
}, {
  "id" : 3619368,
  "name" : "VOLTAIRE",
  "longitud" : 48.81454166615835,
  "latitud" : 2.537879731634287
}, {
  "id" : 3619370,
  "name" : "DOCTEUR BRING",
  "longitud" : 48.81825135130288,
  "latitud" : 2.53921424878456
}, {
  "id" : 3619372,
  "name" : "VILLIERS-SUR-MARNE - LE PLESSIS-TREVISE RER",
  "longitud" : 48.82339606932569,
  "latitud" : 2.5422832300242293
}, {
  "id" : 3619376,
  "name" : "ROLAND CAUCHY",
  "longitud" : 48.774820427361355,
  "latitud" : 2.511712017594515
}, {
  "id" : 3619377,
  "name" : "CRETEIL - PREFECTURE",
  "longitud" : 48.78023308886009,
  "latitud" : 2.459832212743814
}, {
  "id" : 3619390,
  "name" : "JOINVILLE-LE-PONT RER",
  "longitud" : 48.82149166424982,
  "latitud" : 2.4642443126460982
}, {
  "id" : 3619392,
  "name" : "CARREFOUR DE LA RESISTANCE",
  "longitud" : 48.820058540953156,
  "latitud" : 2.468010922893876
}, {
  "id" : 3619394,
  "name" : "VERDUN",
  "longitud" : 48.819665262659576,
  "latitud" : 2.474066572581072
}, {
  "id" : 3619396,
  "name" : "JOUGLA",
  "longitud" : 48.82337773409919,
  "latitud" : 2.4735863487603935
}, {
  "id" : 3619398,
  "name" : "MOZART",
  "longitud" : 48.82591284305459,
  "latitud" : 2.4730757500410943
}, {
  "id" : 3619400,
  "name" : "POLANGIS",
  "longitud" : 48.82769843508789,
  "latitud" : 2.475639580210116
}, {
  "id" : 3619402,
  "name" : "CAMPING INTERNATIONAL",
  "longitud" : 48.8296917288368,
  "latitud" : 2.4773193022480613
}, {
  "id" : 3619410,
  "name" : "LES PLATANES",
  "longitud" : 48.81995626912527,
  "latitud" : 2.478844627264899
}, {
  "id" : 3619412,
  "name" : "LA FOURCHETTE DE CHAMPIGNY",
  "longitud" : 48.819597917010675,
  "latitud" : 2.485281375382471
}, {
  "id" : 3619414,
  "name" : "ARISTIDE BRIAND - LE PLANT",
  "longitud" : 48.81824154779597,
  "latitud" : 2.4917422856669598
}, {
  "id" : 3619416,
  "name" : "JEAN-BAPTISTE CLEMENT",
  "longitud" : 48.8170113708214,
  "latitud" : 2.497672470743791
}, {
  "id" : 3619418,
  "name" : "PLAGE DE CHAMPIGNY",
  "longitud" : 48.816504806848876,
  "latitud" : 2.500066196243978
}, {
  "id" : 3619420,
  "name" : "GUITTARD",
  "longitud" : 48.81497727135156,
  "latitud" : 2.5062399860581337
}, {
  "id" : 3619422,
  "name" : "MAIRIE - MARCHE",
  "longitud" : 48.81387624492796,
  "latitud" : 2.50939367172205
}, {
  "id" : 3619424,
  "name" : "MAIRIE DE CHAMPIGNY",
  "longitud" : 48.81309006496073,
  "latitud" : 2.5123033301711906
}, {
  "id" : 3619426,
  "name" : "RUE A TRAIT",
  "longitud" : 48.8115049003583,
  "latitud" : 2.5145433547991614
}, {
  "id" : 3619428,
  "name" : "POLYCLINIQUE",
  "longitud" : 48.81028645919298,
  "latitud" : 2.517927581784478
}, {
  "id" : 3619430,
  "name" : "JEANNE VACHER",
  "longitud" : 48.809132450898176,
  "latitud" : 2.5202640870258044
}, {
  "id" : 3619453,
  "name" : "REPUBLIQUE - STALINGRAD",
  "longitud" : 48.81659565308598,
  "latitud" : 2.512056569515946
}, {
  "id" : 3619455,
  "name" : "REPUBLIQUE - ALEXANDRE FOURNY",
  "longitud" : 48.819652504878526,
  "latitud" : 2.511359121916845
}, {
  "id" : 3619457,
  "name" : "CITES JARDINS",
  "longitud" : 48.821657491207276,
  "latitud" : 2.510862242190956
}, {
  "id" : 3619459,
  "name" : "LES BOULLEREAUX - CHAMPIGNY RER",
  "longitud" : 48.825065039272545,
  "latitud" : 2.510029706164421
}, {
  "id" : 3619461,
  "name" : "FOURCHETTE DE BRY",
  "longitud" : 48.82721990817911,
  "latitud" : 2.511520634602343
}, {
  "id" : 3619463,
  "name" : "LES MARAIS",
  "longitud" : 48.826832972816526,
  "latitud" : 2.5178626777169675
}, {
  "id" : 3619465,
  "name" : "LES ARMOIRIES",
  "longitud" : 48.82718358992669,
  "latitud" : 2.529284717049896
}, {
  "id" : 3619467,
  "name" : "BEAUSEJOUR",
  "longitud" : 48.8269856256515,
  "latitud" : 2.5349195057282508
}, {
  "id" : 3619469,
  "name" : "MAIRIE DE VILLIERS-SUR-MARNE",
  "longitud" : 48.82629358652719,
  "latitud" : 2.540252848669576
}, {
  "id" : 3619479,
  "name" : "DAGOTY",
  "longitud" : 48.8162471118024,
  "latitud" : 2.47649366946066
}, {
  "id" : 3619481,
  "name" : "CHARLES FLOQUET - DIDEROT",
  "longitud" : 48.81517164208101,
  "latitud" : 2.4814717708253067
}, {
  "id" : 3619483,
  "name" : "VERDUN - CHARLES FLOQUET",
  "longitud" : 48.81737209049067,
  "latitud" : 2.482743599001299
}, {
  "id" : 3619484,
  "name" : "JACQUES DECOUR",
  "longitud" : 48.816650544271866,
  "latitud" : 2.484796632384698
}, {
  "id" : 3619485,
  "name" : "BEL AIR",
  "longitud" : 48.81585473698603,
  "latitud" : 2.488686668376452
}, {
  "id" : 3619486,
  "name" : "DIANE",
  "longitud" : 48.814804248232825,
  "latitud" : 2.494780507413906
}, {
  "id" : 3619488,
  "name" : "VERDUN - LA PLAGE",
  "longitud" : 48.81368978286796,
  "latitud" : 2.5014182539472904
}, {
  "id" : 3619489,
  "name" : "DIDEROT - LA PLAGE",
  "longitud" : 48.81283630519382,
  "latitud" : 2.501156990506999
}, {
  "id" : 3619491,
  "name" : "LES PAVILLONS FLEURIS",
  "longitud" : 48.813303070977845,
  "latitud" : 2.488012394944514
}, {
  "id" : 3619629,
  "name" : "JOINVILLE-LE-PONT-RER",
  "longitud" : 48.820961521899235,
  "latitud" : 2.464120518606719
}, {
  "id" : 3619638,
  "name" : "LES MARRONNIERS",
  "longitud" : 48.82235696607947,
  "latitud" : 2.492475926398596
}, {
  "id" : 3619640,
  "name" : "GENERAL DE GAULLE - STALINGRAD",
  "longitud" : 48.82341282417215,
  "latitud" : 2.4960316645165452
}, {
  "id" : 3619642,
  "name" : "ANDRE OHRESSER",
  "longitud" : 48.82469207508703,
  "latitud" : 2.500459398790061
}, {
  "id" : 3619652,
  "name" : "GUY MOQUET",
  "longitud" : 48.81922481437062,
  "latitud" : 2.5149235929101734
}, {
  "id" : 3619654,
  "name" : "FOURNY EGALITE",
  "longitud" : 48.81883257366014,
  "latitud" : 2.518746723608904
}, {
  "id" : 3619655,
  "name" : "BENOIT FRACHON",
  "longitud" : 48.81865591443315,
  "latitud" : 2.5225705666680525
}, {
  "id" : 3619659,
  "name" : "CENTRE COMMERCIAL DE CHAMPIGNY-SUR-MARNE",
  "longitud" : 48.819899085398454,
  "latitud" : 2.5320343095110474
}, {
  "id" : 3619661,
  "name" : "RUE DE BERNAU",
  "longitud" : 48.8168040768371,
  "latitud" : 2.533996101689457
}, {
  "id" : 3619663,
  "name" : "LYCEE MARX DORMOY",
  "longitud" : 48.81735748932295,
  "latitud" : 2.5362982634103557
}, {
  "id" : 3619665,
  "name" : "BERNAU DOLET",
  "longitud" : 48.81773172442604,
  "latitud" : 2.5382323107920874
}, {
  "id" : 3619669,
  "name" : "EGALITE",
  "longitud" : 48.81897685350139,
  "latitud" : 2.5184341920480304
}, {
  "id" : 3619682,
  "name" : "JOFFRE",
  "longitud" : 48.80368630329261,
  "latitud" : 2.507849592372864
}, {
  "id" : 3619684,
  "name" : "CARPEAUX",
  "longitud" : 48.80181920907061,
  "latitud" : 2.5061835547181333
}, {
  "id" : 3619686,
  "name" : "STADE A. MARIN",
  "longitud" : 48.79993413223625,
  "latitud" : 2.504503973768863
}, {
  "id" : 3619690,
  "name" : "RUE DE LA FERME",
  "longitud" : 48.795761850388715,
  "latitud" : 2.4993889705343197
}, {
  "id" : 3619692,
  "name" : "BOULEVARD DE LA MARNE",
  "longitud" : 48.79320267015963,
  "latitud" : 2.497639732087094
}, {
  "id" : 3619694,
  "name" : "MURIERS",
  "longitud" : 48.78933207731256,
  "latitud" : 2.495247343432333
}, {
  "id" : 3619696,
  "name" : "RASPAIL-PONT DE BONNEUIL",
  "longitud" : 48.785044968535104,
  "latitud" : 2.495139092698952
}, {
  "id" : 3619698,
  "name" : "MOULIN BATEAU",
  "longitud" : 48.78217006978288,
  "latitud" : 2.4941919117596556
}, {
  "id" : 3619700,
  "name" : "PORT DE BONNEUIL",
  "longitud" : 48.77945823849475,
  "latitud" : 2.4922525327183784
}, {
  "id" : 3619702,
  "name" : "AVIATION",
  "longitud" : 48.77527305495651,
  "latitud" : 2.4897514642831533
}, {
  "id" : 3619709,
  "name" : "REPUBLIQUE",
  "longitud" : 48.76806873305718,
  "latitud" : 2.4791791118798985
}, {
  "id" : 3619711,
  "name" : "DOCTEUR ROUX",
  "longitud" : 48.76994130248055,
  "latitud" : 2.476600720565667
}, {
  "id" : 3619713,
  "name" : "SULLY",
  "longitud" : 48.76828255775569,
  "latitud" : 2.473101850782709
}, {
  "id" : 3619715,
  "name" : "NELSON PAILLOU",
  "longitud" : 48.7686265082779,
  "latitud" : 2.470981609085061
}, {
  "id" : 3619717,
  "name" : "ATTRIPES",
  "longitud" : 48.76855787078499,
  "latitud" : 2.46804447195665
}, {
  "id" : 3619719,
  "name" : "POINTE DU LAC-METRO",
  "longitud" : 48.76945085279237,
  "latitud" : 2.465136903748683
}, {
  "id" : 3619722,
  "name" : "GRIFFONS",
  "longitud" : 48.77173059396369,
  "latitud" : 2.4596625748657943
}, {
  "id" : 3619724,
  "name" : "BILLOTTE - FALKIRK",
  "longitud" : 48.77272997506265,
  "latitud" : 2.4579923598884132
}, {
  "id" : 3619726,
  "name" : "PORT",
  "longitud" : 48.77462751904508,
  "latitud" : 2.456936077410044
}, {
  "id" : 3619728,
  "name" : "HOTEL DE VILLE DE CRETEIL",
  "longitud" : 48.7772177623321,
  "latitud" : 2.4552421324650133
}, {
  "id" : 3619740,
  "name" : "LA SOURCE",
  "longitud" : 48.77060554041263,
  "latitud" : 2.4611556570563367
}, {
  "id" : 3619741,
  "name" : "MESSIDOR - LIBERTES",
  "longitud" : 48.76913803459307,
  "latitud" : 2.4867420734045824
}, {
  "id" : 3619742,
  "name" : "CHAMPIGNY - SAINT-MAUR RER",
  "longitud" : 48.807206431464884,
  "latitud" : 2.5099974860506347
}, {
  "id" : 3619743,
  "name" : "ECOLE VETERINAIRE DE MAISONS-ALFORT",
  "longitud" : 48.81441916465956,
  "latitud" : 2.423100474888156
}, {
  "id" : 3619745,
  "name" : "ERNEST RENAN",
  "longitud" : 48.81265425396275,
  "latitud" : 2.427574778454602
}, {
  "id" : 3619746,
  "name" : "PIERRE CURIE",
  "longitud" : 48.810472733578806,
  "latitud" : 2.4242098051495105
}, {
  "id" : 3619748,
  "name" : "PROFESSEUR CADIOT",
  "longitud" : 48.806103348118064,
  "latitud" : 2.4259985924107417
}, {
  "id" : 3619750,
  "name" : "CAPITAINE DEPLANQUE",
  "longitud" : 48.802875010281,
  "latitud" : 2.4282652789008736
}, {
  "id" : 3619751,
  "name" : "MAIRIE DE MAISONS-ALFORT",
  "longitud" : 48.801452939993034,
  "latitud" : 2.430834252803074
}, {
  "id" : 3619752,
  "name" : "GENERAL GALLIENI",
  "longitud" : 48.796966078202246,
  "latitud" : 2.4332477619374995
}, {
  "id" : 3619754,
  "name" : "BELFORT",
  "longitud" : 48.793424107840224,
  "latitud" : 2.4341662551945347
}, {
  "id" : 3619756,
  "name" : "LE VERT DE MAISONS RER",
  "longitud" : 48.7901248498235,
  "latitud" : 2.4350170670313354
}, {
  "id" : 3619758,
  "name" : "PETITES HAIES",
  "longitud" : 48.787669260838584,
  "latitud" : 2.4372839842938494
}, {
  "id" : 3619760,
  "name" : "MONTAIGUT",
  "longitud" : 48.78930905941839,
  "latitud" : 2.4430545876443097
}, {
  "id" : 3619762,
  "name" : "UNIVERSITE",
  "longitud" : 48.78790414590429,
  "latitud" : 2.4461530038139205
}, {
  "id" : 3619764,
  "name" : "LA HAYE AUX MOINES",
  "longitud" : 48.78554622424842,
  "latitud" : 2.449466821174109
}, {
  "id" : 3619771,
  "name" : "CRETEIL-PREFECTURE",
  "longitud" : 48.77991704362218,
  "latitud" : 2.461245867969711
}, {
  "id" : 3619773,
  "name" : "CASALIS-SAVAR",
  "longitud" : 48.78006353894309,
  "latitud" : 2.467148639104774
}, {
  "id" : 3619777,
  "name" : "HUGO-BLUM",
  "longitud" : 48.80034395549433,
  "latitud" : 2.4351587565204533
}, {
  "id" : 3619778,
  "name" : "REPUBLIQUE-BLUM",
  "longitud" : 48.80309521938252,
  "latitud" : 2.4339530039416792
}, {
  "id" : 3619780,
  "name" : "BOULEY-ECOLE VETERINAIRE",
  "longitud" : 48.81344050424506,
  "latitud" : 2.4216971516081163
}, {
  "id" : 3619781,
  "name" : "VITRY RER",
  "longitud" : 48.80095066552558,
  "latitud" : 2.4023025940425726
}, {
  "id" : 3619786,
  "name" : "SALVADOR ALLENDE - EDITH CAVELL",
  "longitud" : 48.795848770567595,
  "latitud" : 2.412132018590053
}, {
  "id" : 3619788,
  "name" : "PONT DE VITRY",
  "longitud" : 48.795909442621635,
  "latitud" : 2.4156147782433646
}, {
  "id" : 3619791,
  "name" : "PAUL VAILLANT COUTURIER - KENNEDY",
  "longitud" : 48.802664657573516,
  "latitud" : 2.4209721155576363
}, {
  "id" : 3619792,
  "name" : "MAIRIE D'ALFORTVILLE",
  "longitud" : 48.80431895803931,
  "latitud" : 2.420199218744179
}, {
  "id" : 3619794,
  "name" : "RAYMOND JACLARD",
  "longitud" : 48.803849211682014,
  "latitud" : 2.4235456106895175
}, {
  "id" : 3619796,
  "name" : "MAISONS-ALFORT - ALFORTVILLE RER",
  "longitud" : 48.802193764020096,
  "latitud" : 2.4258422457201925
}, {
  "id" : 3619798,
  "name" : "MAISONS-ALFORT - ALFORTVILLE RER.",
  "longitud" : 48.8000167673464,
  "latitud" : 2.428409926803603
}, {
  "id" : 3619802,
  "name" : "REPUBLIQUE - BLUM",
  "longitud" : 48.80300476414455,
  "latitud" : 2.434660350132125
}, {
  "id" : 3619804,
  "name" : "JOUET",
  "longitud" : 48.80401841347209,
  "latitud" : 2.4370433573936943
}, {
  "id" : 3619806,
  "name" : "REPUBLIQUE - GENERAL LECLERC",
  "longitud" : 48.80545358362177,
  "latitud" : 2.4404205760320155
}, {
  "id" : 3619808,
  "name" : "LES JUILLIOTTES-METRO",
  "longitud" : 48.80420141558995,
  "latitud" : 2.4436700094441166
}, {
  "id" : 3619810,
  "name" : "HENRI MONDOR - LAFERRIERE",
  "longitud" : 48.798691144546154,
  "latitud" : 2.4540256685936535
}, {
  "id" : 3619814,
  "name" : "EGLISE DE CRETEIL",
  "longitud" : 48.793965959282545,
  "latitud" : 2.4605176061845695
}, {
  "id" : 3619816,
  "name" : "BRETAGNE",
  "longitud" : 48.79131440693932,
  "latitud" : 2.4606337394648734
}, {
  "id" : 3619818,
  "name" : "HOPITAL CHENEVIER",
  "longitud" : 48.78845519149672,
  "latitud" : 2.461647115332306
}, {
  "id" : 3619820,
  "name" : "ORME AU CHAT",
  "longitud" : 48.785146435130216,
  "latitud" : 2.4627817066444044
}, {
  "id" : 3619822,
  "name" : "HENRI CARDINAUD",
  "longitud" : 48.782151715373445,
  "latitud" : 2.46440654071478
}, {
  "id" : 3619824,
  "name" : "CASALIS - SAVAR",
  "longitud" : 48.77980464437932,
  "latitud" : 2.465529593805048
}, {
  "id" : 3619832,
  "name" : "VIET",
  "longitud" : 48.80093266373305,
  "latitud" : 2.4503572214194693
}, {
  "id" : 3619834,
  "name" : "DOLET - ZOLA",
  "longitud" : 48.79858345959207,
  "latitud" : 2.421985902072572
}, {
  "id" : 3619835,
  "name" : "EDITH CAVELL - WALDECK ROUSSEAU",
  "longitud" : 48.80157523745613,
  "latitud" : 2.4101946659664866
}, {
  "id" : 3619836,
  "name" : "PASTEUR - CHARLES FOURIER",
  "longitud" : 48.802638640225744,
  "latitud" : 2.405406865407548
}, {
  "id" : 3619839,
  "name" : "FRERES LUMIERE",
  "longitud" : 48.818179057234794,
  "latitud" : 2.4605751082039564
}, {
  "id" : 3619841,
  "name" : "LES CANADIENS",
  "longitud" : 48.81645725033726,
  "latitud" : 2.4568147723935323
}, {
  "id" : 3619843,
  "name" : "ECOLES DE GRAVELLE",
  "longitud" : 48.81534933080804,
  "latitud" : 2.4592074559437234
}, {
  "id" : 3619845,
  "name" : "JOHN FITZGERALD KENNEDY",
  "longitud" : 48.81435751834528,
  "latitud" : 2.4622535492272988
}, {
  "id" : 3619847,
  "name" : "PONT DE MAISONS-ALFORT",
  "longitud" : 48.80943191523625,
  "latitud" : 2.453696027364022
}, {
  "id" : 3619849,
  "name" : "PLANETES",
  "longitud" : 48.80847577963164,
  "latitud" : 2.4571501852467024
}, {
  "id" : 3619851,
  "name" : "LOUIS FLICHE",
  "longitud" : 48.80764356796923,
  "latitud" : 2.4623326343241865
}, {
  "id" : 3619852,
  "name" : "MAYENNE",
  "longitud" : 48.8068241553007,
  "latitud" : 2.4637730084161467
}, {
  "id" : 3619854,
  "name" : "HALAGE",
  "longitud" : 48.8052308940406,
  "latitud" : 2.466027828337254
}, {
  "id" : 3619856,
  "name" : "CHERET - LAFERRIERE",
  "longitud" : 48.8024870251911,
  "latitud" : 2.4599663873329023
}, {
  "id" : 3619858,
  "name" : "COLLEGE PLAISANCE",
  "longitud" : 48.80054026405483,
  "latitud" : 2.4564243794563274
}, {
  "id" : 3619862,
  "name" : "HOPITAL HENRI MONDOR",
  "longitud" : 48.798802197537015,
  "latitud" : 2.4507199144659713
}, {
  "id" : 3619864,
  "name" : "CRETEIL - L'ECHAT",
  "longitud" : 48.79690849007686,
  "latitud" : 2.4478180270113206
}, {
  "id" : 3619866,
  "name" : "SAINT-SIMON",
  "longitud" : 48.79367396481536,
  "latitud" : 2.446614022629779
}, {
  "id" : 3619883,
  "name" : "JEAN MERMOZ",
  "longitud" : 48.776161530438884,
  "latitud" : 2.4682540024513275
}, {
  "id" : 3619885,
  "name" : "MONT MESLY",
  "longitud" : 48.77435582263095,
  "latitud" : 2.467447134186147
}, {
  "id" : 3619887,
  "name" : "DOCTEUR RAMON",
  "longitud" : 48.773792276296746,
  "latitud" : 2.4649572131577124
}, {
  "id" : 3619888,
  "name" : "CLOS VOUGEOT",
  "longitud" : 48.77172295655446,
  "latitud" : 2.466869425723614
}, {
  "id" : 3619890,
  "name" : "COTEAUX SUD",
  "longitud" : 48.77026586848132,
  "latitud" : 2.467804017022486
}, {
  "id" : 3619892,
  "name" : "LYCEE GUTENBERG",
  "longitud" : 48.76950606229964,
  "latitud" : 2.4721124479116656
}, {
  "id" : 3619896,
  "name" : "EUROPARC",
  "longitud" : 48.76602843811365,
  "latitud" : 2.4714371990791824
}, {
  "id" : 3619911,
  "name" : "CECILE",
  "longitud" : 48.80734290991733,
  "latitud" : 2.4382199658929267
}, {
  "id" : 3619913,
  "name" : "STADE-METRO",
  "longitud" : 48.80911631720834,
  "latitud" : 2.4348487169483812
}, {
  "id" : 3619915,
  "name" : "GABRIEL PERI",
  "longitud" : 48.81004937608928,
  "latitud" : 2.436864439987811
}, {
  "id" : 3619917,
  "name" : "RENE COTY",
  "longitud" : 48.80993660161347,
  "latitud" : 2.4425795286496297
}, {
  "id" : 3619919,
  "name" : "RUE DE LILLE",
  "longitud" : 48.80740717945205,
  "latitud" : 2.446847060018518
}, {
  "id" : 3619921,
  "name" : "RUE DE MARSEILLE",
  "longitud" : 48.8085087940974,
  "latitud" : 2.4509860647156647
}, {
  "id" : 3619935,
  "name" : "COLLEGE DE STAEL",
  "longitud" : 48.799609752657105,
  "latitud" : 2.4424089237628346
}, {
  "id" : 3620234,
  "name" : "VICTOR BASCH",
  "longitud" : 48.75832510179907,
  "latitud" : 2.393548853881575
}, {
  "id" : 3620236,
  "name" : "GEORGES HALGOULT",
  "longitud" : 48.7608206316157,
  "latitud" : 2.399886827106586
}, {
  "id" : 3620238,
  "name" : "RENE PANHARD",
  "longitud" : 48.763057563786816,
  "latitud" : 2.401956052432323
}, {
  "id" : 3620240,
  "name" : "ROUGET DE LISLE",
  "longitud" : 48.76406242550379,
  "latitud" : 2.4051931156350927
}, {
  "id" : 3620242,
  "name" : "CHOISY-LE-ROI RER",
  "longitud" : 48.76519280296094,
  "latitud" : 2.408811168157441
}, {
  "id" : 3620246,
  "name" : "MARCELLIN BERTHELOT",
  "longitud" : 48.768717139337944,
  "latitud" : 2.421026189476439
}, {
  "id" : 3620250,
  "name" : "POMPADOUR",
  "longitud" : 48.7728950198174,
  "latitud" : 2.434862259358489
}, {
  "id" : 3620252,
  "name" : "BASSE QUINTE",
  "longitud" : 48.77518866012702,
  "latitud" : 2.4433793970477793
}, {
  "id" : 3620254,
  "name" : "VAL POMPADOUR",
  "longitud" : 48.76873227094679,
  "latitud" : 2.4466567018437053
}, {
  "id" : 3620256,
  "name" : "FACULTE DES SPORTS",
  "longitud" : 48.76823668451153,
  "latitud" : 2.457261279547071
}, {
  "id" : 3620262,
  "name" : "STADE DE BONNEUIL",
  "longitud" : 48.765746552821064,
  "latitud" : 2.48187843383552
}, {
  "id" : 3639714,
  "name" : "NOISY-CHAMPS RER - DESCARTES",
  "longitud" : 48.84349753751659,
  "latitud" : 2.582368588091524
}, {
  "id" : 3639716,
  "name" : "C.R.O.U.S.",
  "longitud" : 48.84164282440034,
  "latitud" : 2.5839529253046334
}, {
  "id" : 3639718,
  "name" : "NOBEL",
  "longitud" : 48.838512994627884,
  "latitud" : 2.584986430503156
}, {
  "id" : 3639720,
  "name" : "LES AEROSTIERS",
  "longitud" : 48.831702442863055,
  "latitud" : 2.583987347531766
}, {
  "id" : 3639722,
  "name" : "LES 2 LACS",
  "longitud" : 48.83077726243114,
  "latitud" : 2.588026125603078
}, {
  "id" : 3639724,
  "name" : "MALNOUE - BOIS DES SOUCHES",
  "longitud" : 48.830592439926875,
  "latitud" : 2.5904211810401434
}, {
  "id" : 3639726,
  "name" : "MALNOUE - PLACE AUGUSTE LEGEMBLE",
  "longitud" : 48.827022862534776,
  "latitud" : 2.5952906221299465
}, {
  "id" : 3639728,
  "name" : "MALNOUE - ANCIEN MONASTERE",
  "longitud" : 48.829415123672106,
  "latitud" : 2.5987057777609466
}, {
  "id" : 3639730,
  "name" : "MALNOUE - AVENUE DE L'EUROPE",
  "longitud" : 48.83004008919907,
  "latitud" : 2.604630671496905
}, {
  "id" : 3639732,
  "name" : "MALNOUE - STADE DOMINIQUE ROCHETEAU",
  "longitud" : 48.826008002475554,
  "latitud" : 2.6110484455710865
}, {
  "id" : 3639734,
  "name" : "CIMETIERE D'EMERAINVILLE",
  "longitud" : 48.81762921198782,
  "latitud" : 2.6158766127359825
}, {
  "id" : 3639736,
  "name" : "RUE D'EMERY",
  "longitud" : 48.813805376080765,
  "latitud" : 2.621381325410131
}, {
  "id" : 3639738,
  "name" : "MAIRIE D'EMERAINVILLE",
  "longitud" : 48.81154816455081,
  "latitud" : 2.6219133055955757
}, {
  "id" : 3639742,
  "name" : "EMERAINVILLE-PONTAULT-COMBAULT RER",
  "longitud" : 48.80651478594543,
  "latitud" : 2.6182118039011284
}, {
  "id" : 3663565,
  "name" : "ECOLE VETERINAIRE DE MAISONS-ALFORT-METRO",
  "longitud" : 48.814824509132606,
  "latitud" : 2.421849103746526
}, {
  "id" : 3663566,
  "name" : "PAUL BERT",
  "longitud" : 48.81557632329112,
  "latitud" : 2.4261781005441354
}, {
  "id" : 3663567,
  "name" : "LES 7 ARBRES",
  "longitud" : 48.815311271194865,
  "latitud" : 2.431893542339596
}, {
  "id" : 3663568,
  "name" : "MOULIN BRULE",
  "longitud" : 48.815450541248154,
  "latitud" : 2.4374327868943513
}, {
  "id" : 3663569,
  "name" : "PASSERELLE DE CHARENTONNEAU",
  "longitud" : 48.81514853647275,
  "latitud" : 2.4436652339871356
}, {
  "id" : 3663572,
  "name" : "RUE DE VINCENNES",
  "longitud" : 48.80978760160916,
  "latitud" : 2.4482945155545006
}, {
  "id" : 3663573,
  "name" : "LYON",
  "longitud" : 48.80972104464445,
  "latitud" : 2.452131777070312
}, {
  "id" : 3663576,
  "name" : "DANIELLE CASANOVA",
  "longitud" : 48.805321273732574,
  "latitud" : 2.4569388003270016
}, {
  "id" : 3663578,
  "name" : "HOPITAL INTERCOMMUNAL",
  "longitud" : 48.79983814837087,
  "latitud" : 2.4660688746577812
}, {
  "id" : 3663579,
  "name" : "PONT DE CRETEIL",
  "longitud" : 48.80069437856847,
  "latitud" : 2.4720301880146383
}, {
  "id" : 3663580,
  "name" : "RUE DES REMISES",
  "longitud" : 48.80422669600751,
  "latitud" : 2.471944112992333
}, {
  "id" : 3663581,
  "name" : "SAINT-MAUR-CRETEIL RER - LE PARVIS",
  "longitud" : 48.80659772200204,
  "latitud" : 2.4734878556768183
}, {
  "id" : 3663582,
  "name" : "LIBERATION - RABELAIS",
  "longitud" : 48.80723447731543,
  "latitud" : 2.4746869575894057
}, {
  "id" : 3663583,
  "name" : "CIMETIERE - RABELAIS",
  "longitud" : 48.806185859569304,
  "latitud" : 2.4798139815274216
}, {
  "id" : 3663584,
  "name" : "LE PARC DE SAINT-MAUR RER",
  "longitud" : 48.80479502747449,
  "latitud" : 2.4853072019162816
}, {
  "id" : 3663585,
  "name" : "MAIRIE DE SAINT-MAUR",
  "longitud" : 48.80312425965535,
  "latitud" : 2.4845268900734148
}, {
  "id" : 3663587,
  "name" : "BOULEVARD DE CRETEIL",
  "longitud" : 48.79773232228551,
  "latitud" : 2.483899386356818
}, {
  "id" : 3663589,
  "name" : "ADAMVILLE",
  "longitud" : 48.79366722744981,
  "latitud" : 2.4859692603369736
}, {
  "id" : 3663590,
  "name" : "VASSAL",
  "longitud" : 48.79337989099597,
  "latitud" : 2.47836405736182
}, {
  "id" : 3663591,
  "name" : "RUE DES COTEAUX",
  "longitud" : 48.79153325232115,
  "latitud" : 2.474196504265185
}, {
  "id" : 3663592,
  "name" : "VILLETTE",
  "longitud" : 48.78882481201206,
  "latitud" : 2.476841820182719
}, {
  "id" : 3663593,
  "name" : "LA PIE",
  "longitud" : 48.78820032893041,
  "latitud" : 2.4804719249684917
}, {
  "id" : 3663610,
  "name" : "SAINT-MAUR-CRETEIL RER",
  "longitud" : 48.80598700388036,
  "latitud" : 2.473091654649023
}, {
  "id" : 3663612,
  "name" : "SQUARE BEAUREPAIRE",
  "longitud" : 48.79040663472656,
  "latitud" : 2.4768868801941784
}, {
  "id" : 3663613,
  "name" : "BOURBAKI",
  "longitud" : 48.79213572883255,
  "latitud" : 2.4815574323010776
}, {
  "id" : 3663615,
  "name" : "INKERMANN",
  "longitud" : 48.79705268455538,
  "latitud" : 2.488332535820817
}, {
  "id" : 3663616,
  "name" : "BIBLIOTHEQUE MUNICIPALE",
  "longitud" : 48.79947927962356,
  "latitud" : 2.4884348323622807
}, {
  "id" : 3663621,
  "name" : "GODEFROY CAVAIGNAC",
  "longitud" : 48.80749540542528,
  "latitud" : 2.47444271804436
}, {
  "id" : 3666561,
  "name" : "GARE DE L'EST",
  "longitud" : 48.87606668773622,
  "latitud" : 2.3582102623140737
}, {
  "id" : 3666563,
  "name" : "VALENCIENNES",
  "longitud" : 48.87781949763114,
  "latitud" : 2.3564941357294393
}, {
  "id" : 3666566,
  "name" : "PLACE DE LA CHAPELLE",
  "longitud" : 48.88362477105826,
  "latitud" : 2.3593443757229804
}, {
  "id" : 3666570,
  "name" : "MICHELET - PARC DES EXPOSITIONS",
  "longitud" : 48.943208140646156,
  "latitud" : 2.4331368931210045
}, {
  "id" : 3666571,
  "name" : "MUSEE DE L'AIR ET DE L'ESPACE",
  "longitud" : 48.9481288514466,
  "latitud" : 2.438044271536468
}, {
  "id" : 3666572,
  "name" : "LENINE",
  "longitud" : 48.94979907282551,
  "latitud" : 2.4395893668672017
}, {
  "id" : 3666573,
  "name" : "MAURICE AUDIN",
  "longitud" : 48.95023896305817,
  "latitud" : 2.450069404035895
}, {
  "id" : 3666575,
  "name" : "CIMETIERE DU BLANC-MESNIL",
  "longitud" : 48.95002480024804,
  "latitud" : 2.457709966646667
}, {
  "id" : 3666577,
  "name" : "DESCARTES - RENAULT",
  "longitud" : 48.95030571554676,
  "latitud" : 2.4641373075254696
}, {
  "id" : 3666579,
  "name" : "ANATOLE SIGONNEAU - CENTRE D'AFFAIRES",
  "longitud" : 48.952725400762205,
  "latitud" : 2.462000909309499
}, {
  "id" : 3666581,
  "name" : "ROBERT BREMOND",
  "longitud" : 48.954338518544674,
  "latitud" : 2.457624484216734
}, {
  "id" : 3666585,
  "name" : "GARONOR",
  "longitud" : 48.95652255498733,
  "latitud" : 2.465981166359186
}, {
  "id" : 3666587,
  "name" : "ANDRE CITROEN - VISITEURS",
  "longitud" : 48.96023423277921,
  "latitud" : 2.48879519252648
}, {
  "id" : 3666589,
  "name" : "ANDRE CITROEN - CENTRE DE PRODUCTION",
  "longitud" : 48.96468201571863,
  "latitud" : 2.496178445204811
}, {
  "id" : 3666591,
  "name" : "NATIONS",
  "longitud" : 48.973145817933485,
  "latitud" : 2.510251122253001
}, {
  "id" : 3666593,
  "name" : "PARC DES EXPOSITIONS RER",
  "longitud" : 48.97356323194949,
  "latitud" : 2.513637946290292
}, {
  "id" : 3666595,
  "name" : "227, AVENUE DES NATIONS",
  "longitud" : 48.98292708588317,
  "latitud" : 2.5197046726137797
}, {
  "id" : 3666597,
  "name" : "58, AVENUE DE LA PYRAMIDE",
  "longitud" : 48.98354197724208,
  "latitud" : 2.51719458677695
}, {
  "id" : 3666599,
  "name" : "PARC DES NATIONS",
  "longitud" : 48.98980706243546,
  "latitud" : 2.5161922407264816
}, {
  "id" : 3666600,
  "name" : "MARGUILLIERS",
  "longitud" : 48.994387770329794,
  "latitud" : 2.523623524973269
}, {
  "id" : 3666601,
  "name" : "AEROVILLE - RUE DE LA BELLE BORNE",
  "longitud" : 48.9893885086758,
  "latitud" : 2.525407986023481
}, {
  "id" : 3666602,
  "name" : "CARGO 7",
  "longitud" : 48.9886987620714,
  "latitud" : 2.5457240058899218
}, {
  "id" : 3666603,
  "name" : "RUE DES ROSSIGNOLS",
  "longitud" : 48.99144512362603,
  "latitud" : 2.5262211504278733
}, {
  "id" : 3666604,
  "name" : "RUE DE LA JEUNE FILLE",
  "longitud" : 48.99404119415183,
  "latitud" : 2.5268588266453924
}, {
  "id" : 3666605,
  "name" : "MARGUILLIERS.",
  "longitud" : 48.994701909640355,
  "latitud" : 2.523870474037324
}, {
  "id" : 3666606,
  "name" : "CARGO CENTRE",
  "longitud" : 48.998751840594245,
  "latitud" : 2.525742518298485
}, {
  "id" : 3666607,
  "name" : "LES 2 CEDRES",
  "longitud" : 49.00108531992174,
  "latitud" : 2.527622195778438
}, {
  "id" : 3666608,
  "name" : "RUE DU CHAPITRE",
  "longitud" : 49.002527672002785,
  "latitud" : 2.5358772849144318
}, {
  "id" : 3666609,
  "name" : "RUE DES VIGNES",
  "longitud" : 49.00457340185515,
  "latitud" : 2.5482056690800845
}, {
  "id" : 3666610,
  "name" : "ROISSYPOLE - GARE - RER",
  "longitud" : 49.01051954688492,
  "latitud" : 2.559663932280221
}, {
  "id" : 3666612,
  "name" : "TOUR DE CONTROLE",
  "longitud" : 49.0093548695535,
  "latitud" : 2.5477880446305514
}, {
  "id" : 3666613,
  "name" : "TERMINAL 1",
  "longitud" : 49.015367784893186,
  "latitud" : 2.541992530464244
}, {
  "id" : 3666614,
  "name" : "351, AVENUE DU BOIS DE LA PIE",
  "longitud" : 48.99068832322865,
  "latitud" : 2.515799281573383
}, {
  "id" : 3666615,
  "name" : "291, AVENUE DU BOIS DE LA PIE",
  "longitud" : 48.986517805541546,
  "latitud" : 2.5163310604157636
}, {
  "id" : 3666619,
  "name" : "LA FAYETTE - DUNKERQUE",
  "longitud" : 48.879473278409144,
  "latitud" : 2.3557180612431323
}, {
  "id" : 3666642,
  "name" : "GARONOR-PORTE SUD",
  "longitud" : 48.95661703749953,
  "latitud" : 2.461628188342566
}, {
  "id" : 3666653,
  "name" : "TERMINAL 2A-2C",
  "longitud" : 49.00336657296951,
  "latitud" : 2.5643591158079393
}, {
  "id" : 3666654,
  "name" : "GARE TGV-SNCF",
  "longitud" : 49.004269809288566,
  "latitud" : 2.5712882222403115
}, {
  "id" : 3666714,
  "name" : "ZONE TECHNIQUE",
  "longitud" : 49.01194961864216,
  "latitud" : 2.5332905561985544
}, {
  "id" : 3666715,
  "name" : "GENDARMERIE",
  "longitud" : 49.01507442711935,
  "latitud" : 2.529244823817788
}, {
  "id" : 3666716,
  "name" : "RUE DES 2 SOEURS",
  "longitud" : 49.01235504043436,
  "latitud" : 2.5213385701365962
}, {
  "id" : 3666717,
  "name" : "ENTRETIEN NORD",
  "longitud" : 49.01156449626324,
  "latitud" : 2.5152429686918456
}, {
  "id" : 3666718,
  "name" : "ENTRETIEN SUD",
  "longitud" : 49.007462573372614,
  "latitud" : 2.511977799439751
}, {
  "id" : 3666719,
  "name" : "ENTRETIEN NORD.",
  "longitud" : 49.01153682433248,
  "latitud" : 2.5157210066251756
}, {
  "id" : 3672105,
  "name" : "NATION - TRONE",
  "longitud" : 48.84829087005866,
  "latitud" : 2.39822210994904
}, {
  "id" : 3672106,
  "name" : "PYRENEES - DOCTEUR NETTER",
  "longitud" : 48.84730663534896,
  "latitud" : 2.406623052580046
}, {
  "id" : 3672113,
  "name" : "ECHANGEUR DE BAGNOLET",
  "longitud" : 48.86488327520136,
  "latitud" : 2.41126451915231
}, {
  "id" : 3672115,
  "name" : "LA POSTE",
  "longitud" : 48.86754005980411,
  "latitud" : 2.4166630116229832
}, {
  "id" : 3672116,
  "name" : "GALLIENI-METRO",
  "longitud" : 48.865158291979306,
  "latitud" : 2.4168364548703534
}, {
  "id" : 3672118,
  "name" : "AUGUSTE POLISSARD",
  "longitud" : 48.90685353237826,
  "latitud" : 2.4804181583345417
}, {
  "id" : 3672120,
  "name" : "PAUL RENAUD",
  "longitud" : 48.91061893584278,
  "latitud" : 2.480564906762945
}, {
  "id" : 3672121,
  "name" : "ROUTE D'AULNAY - JEAN MOULIN",
  "longitud" : 48.91240595297027,
  "latitud" : 2.481728807753058
}, {
  "id" : 3672123,
  "name" : "SUZANNE BUISSON",
  "longitud" : 48.91430903604756,
  "latitud" : 2.483506703721796
}, {
  "id" : 3672127,
  "name" : "JOUHAUX - BLUM",
  "longitud" : 48.918161074606274,
  "latitud" : 2.478867597962442
}, {
  "id" : 3672129,
  "name" : "JARDINS DE LA NOUE",
  "longitud" : 48.91953137599179,
  "latitud" : 2.475216716918382
}, {
  "id" : 3672130,
  "name" : "SURCOUF - JEAN JAURES",
  "longitud" : 48.921359498339704,
  "latitud" : 2.471921396034401
}, {
  "id" : 3672134,
  "name" : "LES 4 TOURS",
  "longitud" : 48.92527506408324,
  "latitud" : 2.4743318967195087
}, {
  "id" : 3672136,
  "name" : "QUEBEC",
  "longitud" : 48.92806904712401,
  "latitud" : 2.475157626866216
}, {
  "id" : 3672138,
  "name" : "ROND-POINT PIERRE SEMARD - PAUL VAILLANT-COUTURIER",
  "longitud" : 48.929213819436754,
  "latitud" : 2.479879844919834
}, {
  "id" : 3672160,
  "name" : "ROISSYPOLE",
  "longitud" : 49.01048426253027,
  "latitud" : 2.559308602563976
}, {
  "id" : 3672173,
  "name" : "ERIGNAC",
  "longitud" : 48.85073400118568,
  "latitud" : 2.416038065609302
}, {
  "id" : 3672175,
  "name" : "RUE DE PARIS",
  "longitud" : 48.85392494426368,
  "latitud" : 2.415443658762252
}, {
  "id" : 3672177,
  "name" : "EDOUARD VAILLANT",
  "longitud" : 48.858176462733276,
  "latitud" : 2.4147418014332063
}, {
  "id" : 3673585,
  "name" : "PONT D'AUSTERLITZ - QUAI DE LA RAPEE",
  "longitud" : 48.84523749224217,
  "latitud" : 2.3690506507770803
}, {
  "id" : 3673587,
  "name" : "GARE DE LYON - DIDEROT",
  "longitud" : 48.84573945839716,
  "latitud" : 2.3737080580892607
}, {
  "id" : 3673589,
  "name" : "DAUMESNIL - LEDRU ROLLIN",
  "longitud" : 48.848426890902694,
  "latitud" : 2.373151610559424
}, {
  "id" : 3673591,
  "name" : "LEDRU ROLLIN - FAUBOURG SAINT-ANTOINE",
  "longitud" : 48.85181409562953,
  "latitud" : 2.3765586661869524
}, {
  "id" : 3673592,
  "name" : "CHARONNE - KELLER",
  "longitud" : 48.85309905314883,
  "latitud" : 2.377308694993932
}, {
  "id" : 3673593,
  "name" : "BASFROI",
  "longitud" : 48.85546227686251,
  "latitud" : 2.3786997400768874
}, {
  "id" : 3673595,
  "name" : "VOLTAIRE - LEON BLUM",
  "longitud" : 48.857869934444984,
  "latitud" : 2.381412130955689
}, {
  "id" : 3673597,
  "name" : "SAINT-MAUR - SERVAN",
  "longitud" : 48.85875832342004,
  "latitud" : 2.384954261522689
}, {
  "id" : 3673598,
  "name" : "ROQUETTE - PERE LACHAISE",
  "longitud" : 48.86045533777064,
  "latitud" : 2.388810598217526
}, {
  "id" : 3673599,
  "name" : "AUGUSTE METIVIER",
  "longitud" : 48.86294513869873,
  "latitud" : 2.3881319851015386
}, {
  "id" : 3673604,
  "name" : "MARTIN NADAUD",
  "longitud" : 48.86483844419922,
  "latitud" : 2.3947951316376423
}, {
  "id" : 3673605,
  "name" : "GAMBETTA - MAIRIE DU 20E",
  "longitud" : 48.86568102895075,
  "latitud" : 2.3992369982861637
}, {
  "id" : 3673610,
  "name" : "PISCINE DES TOURELLES",
  "longitud" : 48.87475469777557,
  "latitud" : 2.405706036842063
}, {
  "id" : 3673612,
  "name" : "PORTE DES LILAS-METRO",
  "longitud" : 48.87677638124973,
  "latitud" : 2.406498979802267
}, {
  "id" : 3673614,
  "name" : "RENE FONCK",
  "longitud" : 48.87880601372367,
  "latitud" : 2.4090224897684416
}, {
  "id" : 3673616,
  "name" : "JEAN JAURES-BELVEDERE",
  "longitud" : 48.88080147970929,
  "latitud" : 2.408534699675061
}, {
  "id" : 3673618,
  "name" : "PLACE SEVERINE",
  "longitud" : 48.882472812988375,
  "latitud" : 2.4090275664685965
},